$GPRMC,181815,A,4005.9140,N,10510.0066,W,000.0,024.4,140413,008.7,E,D*0E
$GPGSV,3,1,10,01,35,257,39,11,17,236,36,14,29,073,34,16,06,171,21*7B
$GPGSV,3,2,10,20,37,309,39,22,13,137,31,23,14,278,35,25,18,047,29*73
$GPGSV,3,3,10,31,76,057,32,32,67,308,40*77
$GPRMC,181816,A,4005.9140,N,10510.0066,W,000.0,024.4,140413,008.7,E,D*0D
$GPGSV,3,1,10,01,35,257,39,11,17,236,36,14,29,073,34,16,06,171,21*7B
$GPGSV,3,2,10,20,37,309,39,22,13,137,31,23,14,278,36,25,18,047,29*70
$GPGSV,3,3,10,31,76,057,32,32,67,308,40*77
$GPRMC,181817,A,4005.9140,N,10510.0066,W,000.0,024.4,140413,008.7,E,D*0C
$GPGSV,3,1,10,01,35,257,39,11,17,236,36,14,29,073,33,16,06,171,21*7C
$GPGSV,3,2,10,20,37,309,39,22,13,137,31,23,14,278,36,25,18,047,29*70
$GPGSV,3,3,10,31,76,057,32,32,67,308,40*77
$GPRMC,181818,A,4005.9140,N,10510.0066,W,000.0,024.4,140413,008.7,E,D*03
$GPGSV,3,1,10,01,35,257,39,11,17,236,36,14,29,073,33,16,06,171,20*7D
$GPGSV,3,2,10,20,37,309,39,22,13,137,31,23,14,278,36,25,18,047,28*71
$GPGSV,3,3,10,31,76,057,32,32,67,308,39*79
$GPRMC,181819,A,4005.9140,N,10510.0066,W,000.0,024.4,140413,008.7,E,D*02
$GPGSV,3,1,10,01,35,257,39,11,17,236,36,14,29,073,33,16,06,171,20*7D
$GPGSV,3,2,10,20,37,309,39,22,13,137,31,23,14,278,36,25,18,047,27*7E
$GPGSV,3,3,10,31,76,057,32,32,67,308,39*79
$GPRMC,181820,A,4005.9140,N,10510.0066,W,000.0,024.4,140413,008.7,E,D*08
$GPGSV,3,1,10,01,35,257,39,11,17,236,36,14,29,073,33,16,06,171,20*7D
$GPGSV,3,2,10,20,37,309,39,22,13,137,32,23,14,278,36,25,18,047,27*7D
$GPGSV,3,3,10,31,76,057,32,32,67,308,39*79
$GPRMC,181821,A,4005.9140,N,10510.0066,W,000.0,024.4,140413,008.7,E,D*09
$GPGSV,3,1,10,01,35,257,39,11,17,236,36,14,29,073,32,16,06,171,20*7C
$GPGSV,3,2,10,20,37,309,39,22,13,137,32,23,14,278,36,25,18,047,26*7C
$GPGSV,3,3,10,31,76,057,32,32,67,308,39*79
$GPRMC,181822,A,4005.9140,N,10510.0066,W,000.0,024.4,140413,008.7,E,D*0A
$GPGSV,3,1,10,01,35,257,39,11,17,236,36,14,29,073,33,16,06,171,20*7D
$GPGSV,3,2,10,20,37,309,39,22,13,137,32,23,14,278,36,25,18,047,25*7F
$GPGSV,3,3,10,31,76,057,32,32,67,308,39*79
$GPRMC,181823,A,4005.9140,N,10510.0066,W,000.0,024.4,140413,008.7,E,D*0B
$GPGSV,3,1,10,01,35,257,39,11,17,236,36,14,29,073,33,16,06,171,19*77
$GPGSV,3,2,10,20,37,309,39,22,13,137,32,23,14,278,36,25,18,047,26*7C
$GPGSV,3,3,10,31,76,057,32,32,67,308,39*79
$GPRMC,181824,A,4005.9140,N,10510.0066,W,000.0,024.4,140413,008.7,E,D*0C
$GPGSV,3,1,10,01,35,257,39,11,17,236,36,14,29,073,33,16,06,171,19*77
$GPGSV,3,2,10,20,37,309,39,22,13,137,32,23,14,278,36,25,18,047,25*7F
$GPGSV,3,3,10,31,76,057,33,32,67,308,39*78
$GPRMC,181825,A,4005.9140,N,10510.0066,W,000.0,024.4,140413,008.7,E,D*0D
$GPGSV,3,1,10,01,35,257,39,11,17,236,36,14,29,073,33,16,06,171,19*77
$GPGSV,3,2,10,20,37,309,39,22,13,137,32,23,14,278,36,25,18,047,25*7F
$GPGSV,3,3,10,31,76,057,33,32,67,308,39*78
$GPRMC,181826,A,4005.9140,N,10510.0066,W,000.0,024.4,140413,008.7,E,D*0E
$GPGSV,3,1,10,01,35,257,39,11,17,236,36,14,29,073,32,16,06,171,19*76
$GPGSV,3,2,10,20,37,309,39,22,13,137,32,23,14,278,36,25,18,047,25*7F
$GPGSV,3,3,10,31,76,057,33,32,67,308,39*78
$GPRMC,181827,A,4005.9141,N,10510.0066,W,000.0,024.4,140413,008.7,E,D*0E
$GPGSV,3,1,10,01,35,257,39,11,17,236,36,14,29,073,32,16,06,171,19*76
$GPGSV,3,2,10,20,37,309,39,22,13,137,32,23,14,278,36,25,18,047,25*7F
$GPGSV,3,3,10,31,76,057,33,32,67,308,39*78
$GPRMC,181828,A,4005.9141,N,10510.0066,W,000.0,024.4,140413,008.7,E,D*01
$GPGSV,3,1,10,01,35,257,39,11,17,236,36,14,29,073,32,16,06,171,19*76
$GPGSV,3,2,10,20,37,309,39,22,13,137,32,23,14,278,36,25,18,047,26*7C
$GPGSV,3,3,10,31,76,057,33,32,67,308,39*78
$GPRMC,181829,A,4005.9141,N,10510.0066,W,000.0,024.4,140413,008.7,E,D*00
$GPGSV,3,1,10,01,35,257,39,11,17,236,36,14,28,074,32,16,06,171,18*71
$GPGSV,3,2,10,20,37,309,39,22,13,137,32,23,14,278,36,25,18,047,26*7C
$GPGSV,3,3,10,31,76,057,33,32,67,308,39*78
$GPRMC,181830,A,4005.9141,N,10510.0066,W,000.0,024.4,140413,008.7,E,D*08
$GPGSV,3,1,10,01,35,257,39,11,17,236,36,14,28,074,32,16,06,171,18*71
$GPGSV,3,2,10,20,37,309,39,22,13,137,32,23,14,278,36,25,18,047,27*7D
$GPGSV,3,3,10,31,76,057,33,32,67,308,39*78
$GPRMC,181831,A,4005.9141,N,10510.0066,W,000.0,024.4,140413,008.7,E,D*09
$GPGSV,3,1,10,01,35,257,39,11,17,236,36,14,28,074,33,16,07,170,19*71
$GPGSV,3,2,10,20,37,309,39,22,13,137,33,23,14,278,36,25,18,047,28*73
$GPGSV,3,3,10,31,76,057,33,32,67,308,39*78
$GPRMC,181832,A,4005.9141,N,10510.0066,W,000.0,024.4,140413,008.7,E,D*0A
$GPGSV,3,1,10,01,35,257,39,11,17,236,36,14,28,074,33,16,07,170,20*7B
$GPGSV,3,2,10,20,37,309,39,22,13,137,33,23,14,278,36,25,18,047,29*72
$GPGSV,3,3,10,31,76,057,33,32,67,308,39*78
$GPRMC,181833,A,4005.9141,N,10510.0066,W,000.0,024.4,140413,008.7,E,D*0B
$GPGSV,3,1,10,01,35,257,38,11,17,236,36,14,28,074,32,16,07,170,21*7A
$GPGSV,3,2,10,20,37,309,39,22,13,137,33,23,14,278,36,25,18,047,29*72
$GPGSV,3,3,10,31,76,057,33,32,67,308,39*78
$GPRMC,181834,A,4005.9141,N,10510.0066,W,000.0,024.4,140413,008.7,E,D*0C
$GPGSV,3,1,10,01,35,257,38,11,17,236,36,14,28,074,32,16,07,170,21*7A
$GPGSV,3,2,10,20,37,309,39,22,13,137,33,23,14,278,36,25,18,047,29*72
$GPGSV,3,3,10,31,76,057,33,32,67,308,39*78
$GPRMC,181835,A,4005.9141,N,10510.0066,W,000.0,024.4,140413,008.7,E,D*0D
$GPGSV,3,1,10,01,35,257,38,11,17,236,36,14,28,074,32,16,07,170,21*7A
$GPGSV,3,2,10,20,38,309,39,22,13,137,33,23,14,278,36,25,18,047,29*7D
$GPGSV,3,3,10,31,76,057,33,32,67,308,40*76
$GPRMC,181836,A,4005.9141,N,10510.0066,W,000.0,024.4,140413,008.7,E,D*0E
$GPGSV,3,1,10,01,35,257,38,11,17,236,36,14,28,074,32,16,07,170,21*7A
$GPGSV,3,2,10,20,38,309,39,22,13,137,33,23,14,278,36,25,18,047,29*7D
$GPGSV,3,3,10,31,76,057,33,32,67,308,40*76
$GPRMC,181837,A,4005.9141,N,10510.0066,W,000.0,024.4,140413,008.7,E,D*0F
$GPGSV,3,1,10,01,35,257,38,11,17,236,36,14,28,074,32,16,07,170,21*7A
$GPGSV,3,2,10,20,38,309,39,22,12,137,34,23,14,278,36,25,18,047,28*7A
$GPGSV,3,3,10,31,76,057,32,32,67,308,40*77
$GPRMC,181838,A,4005.9141,N,10510.0066,W,000.0,024.4,140413,008.7,E,D*00
$GPGSV,3,1,10,01,35,257,38,11,17,236,36,14,28,074,31,16,07,170,21*79
$GPGSV,3,2,10,20,38,309,39,22,12,137,34,23,14,278,36,25,18,047,28*7A
$GPGSV,3,3,10,31,76,057,32,32,67,308,40*77
$GPRMC,181839,A,4005.9141,N,10510.0066,W,000.0,024.4,140413,008.7,E,D*01
$GPGSV,3,1,10,01,35,257,38,11,17,236,36,14,28,074,31,16,07,170,21*79
$GPGSV,3,2,10,20,38,309,39,22,12,137,34,23,14,278,36,25,18,047,28*7A
$GPGSV,3,3,10,31,76,057,32,32,67,308,40*77
$GPRMC,181840,A,4005.9141,N,10510.0066,W,000.0,024.4,140413,008.7,E,D*0F
$GPGSV,3,1,10,01,35,257,38,11,17,236,36,14,28,074,31,16,07,170,21*79
$GPGSV,3,2,10,20,38,309,39,22,12,137,34,23,14,278,36,25,18,046,29*7A
$GPGSV,3,3,10,31,76,057,32,32,67,308,40*77
$GPRMC,181841,A,4005.9141,N,10510.0066,W,000.0,024.4,140413,008.7,E,D*0E
$GPGSV,3,1,10,01,35,257,38,11,17,236,37,14,28,074,31,16,07,170,21*78
$GPGSV,3,2,10,20,38,309,39,22,12,137,34,23,14,278,37,25,18,046,29*7B
$GPGSV,3,3,10,31,76,057,32,32,67,308,40*77
$GPRMC,181842,A,4005.9141,N,10510.0066,W,000.0,024.4,140413,008.7,E,D*0D
$GPGSV,3,1,10,01,35,257,38,11,17,236,37,14,28,074,31,16,07,170,22*7B
$GPGSV,3,2,10,20,38,309,39,22,12,137,35,23,14,278,37,25,18,046,29*7A
$GPGSV,3,3,10,31,76,057,32,32,67,308,40*77
$GPRMC,181843,A,4005.9141,N,10510.0066,W,000.0,024.4,140413,008.7,E,D*0C
$GPGSV,3,1,10,01,35,257,38,11,17,236,37,14,28,074,31,16,07,170,22*7B
$GPGSV,3,2,10,20,38,309,39,22,12,137,35,23,14,278,37,25,18,046,29*7A
$GPGSV,3,3,10,31,76,057,32,32,67,308,40*77
$GPRMC,181844,A,4005.9141,N,10510.0066,W,000.0,024.4,140413,008.7,E,D*0B
$GPGSV,3,1,10,01,35,257,38,11,17,236,38,14,28,074,31,16,07,170,23*75
$GPGSV,3,2,10,20,38,309,39,22,12,137,35,23,14,278,37,25,18,046,29*7A
$GPGSV,3,3,10,31,76,057,32,32,67,308,40*77
$GPRMC,181845,A,4005.9141,N,10510.0066,W,000.0,024.4,140413,008.7,E,D*0A
$GPGSV,3,1,10,01,35,257,38,11,17,236,38,14,28,074,30,16,07,170,23*74
$GPGSV,3,2,10,20,38,309,39,22,12,137,35,23,14,278,37,25,18,046,28*7B
$GPGSV,3,3,10,31,76,057,32,32,67,308,40*77
$GPRMC,181846,A,4005.9141,N,10510.0066,W,000.0,024.4,140413,008.7,E,D*09
$GPGSV,3,1,10,01,35,257,38,11,17,236,38,14,28,074,29,16,07,170,23*7C
$GPGSV,3,2,10,20,38,309,39,22,12,137,35,23,14,278,37,25,18,046,28*7B
$GPGSV,3,3,10,31,76,057,31,32,67,308,40*74
$GPRMC,181847,A,4005.9141,N,10510.0066,W,000.0,024.4,140413,008.7,E,D*08
$GPGSV,3,1,10,01,35,257,38,11,17,236,38,14,28,074,29,16,07,170,23*7C
$GPGSV,3,2,10,20,38,309,39,22,12,137,35,23,14,278,37,25,18,046,28*7B
$GPGSV,3,3,10,31,76,057,31,32,67,307,40*7B
$GPRMC,181848,A,4005.9141,N,10510.0066,W,000.0,024.4,140413,008.7,E,D*07
$GPGSV,3,1,10,01,35,256,37,11,17,236,38,14,28,074,29,16,07,170,23*72
$GPGSV,3,2,10,20,38,309,39,22,12,137,35,23,14,278,37,25,18,046,28*7B
$GPGSV,3,3,10,31,76,057,31,32,67,307,40*7B
$GPRMC,181849,A,4005.9141,N,10510.0066,W,000.0,024.4,140413,008.7,E,D*06
$GPGSV,3,1,10,01,35,256,37,11,17,236,38,14,28,074,29,16,07,170,22*73
$GPGSV,3,2,10,20,38,309,39,22,12,137,35,23,14,278,37,25,18,046,28*7B
$GPGSV,3,3,10,31,76,057,31,32,67,307,40*7B
$GPRMC,181850,A,4005.9141,N,10510.0066,W,000.0,024.4,140413,008.7,E,D*0E
$GPGSV,3,1,10,01,35,256,37,11,17,236,38,14,28,074,29,16,07,170,23*72
$GPGSV,3,2,10,20,38,309,39,22,12,137,35,23,14,278,37,25,18,046,28*7B
$GPGSV,3,3,10,31,76,057,31,32,67,307,40*7B
$GPRMC,181851,A,4005.9141,N,10510.0066,W,000.0,024.4,140413,008.7,E,D*0F
$GPGSV,3,1,10,01,35,256,37,11,17,236,38,14,28,074,29,16,07,170,23*72
$GPGSV,3,2,10,20,38,309,39,22,12,137,35,23,14,278,37,25,18,046,28*7B
$GPGSV,3,3,10,31,76,057,31,32,67,307,40*7B
$GPRMC,181852,A,4005.9141,N,10510.0066,W,000.0,024.4,140413,008.7,E,D*0C
$GPGSV,3,1,10,01,35,256,37,11,17,236,38,14,28,074,29,16,07,170,23*72
$GPGSV,3,2,10,20,38,309,39,22,12,137,35,23,14,278,37,25,18,046,28*7B
$GPGSV,3,3,10,31,76,057,30,32,67,307,40*7A
$GPRMC,181853,A,4005.9141,N,10510.0066,W,000.0,024.4,140413,008.7,E,D*0D
$GPGSV,3,1,10,01,35,256,37,11,17,236,38,14,28,074,30,16,07,170,23*7A
$GPGSV,3,2,10,20,38,309,39,22,12,137,35,23,14,278,36,25,18,046,27*75
$GPGSV,3,3,10,31,76,057,30,32,67,307,40*7A
$GPRMC,181854,A,4005.9141,N,10510.0067,W,000.0,024.4,140413,008.7,E,D*0B
$GPGSV,3,1,10,01,35,256,37,11,17,236,38,14,28,074,30,16,07,170,23*7A
$GPGSV,3,2,10,20,38,309,39,22,12,137,35,23,14,278,36,25,18,046,27*75
$GPGSV,3,3,10,31,76,057,30,32,67,307,40*7A
$GPRMC,181855,A,4005.9141,N,10510.0067,W,000.0,024.4,140413,008.7,E,D*0A
$GPGSV,3,1,10,01,35,256,37,11,17,236,39,14,28,074,30,16,07,170,23*7B
$GPGSV,3,2,10,20,38,309,39,22,12,137,35,23,14,278,36,25,18,046,27*75
$GPGSV,3,3,10,31,76,057,31,32,67,307,40*7B
$GPRMC,181856,A,4005.9141,N,10510.0067,W,000.0,024.4,140413,008.7,E,D*09
$GPGSV,3,1,10,01,35,256,37,11,17,236,40,14,28,074,30,16,07,170,23*75
$GPGSV,3,2,10,20,38,309,39,22,12,137,36,23,14,278,36,25,18,046,28*79
$GPGSV,3,3,10,31,76,057,31,32,67,307,40*7B
$GPRMC,181857,A,4005.9141,N,10510.0067,W,000.0,024.4,140413,008.7,E,D*08
$GPGSV,3,1,10,01,35,256,37,11,17,236,40,14,28,074,30,16,07,170,24*72
$GPGSV,3,2,10,20,38,309,39,22,12,137,36,23,14,278,37,25,18,046,29*79
$GPGSV,3,3,10,31,76,057,31,32,67,307,40*7B
$GPRMC,181858,A,4005.9141,N,10510.0067,W,000.0,024.4,140413,008.7,E,D*07
$GPGSV,3,1,10,01,35,256,37,11,17,236,40,14,28,074,31,16,07,170,24*73
$GPGSV,3,2,10,20,38,309,39,22,12,137,36,23,14,278,37,25,18,046,30*71
$GPGSV,3,3,10,31,76,057,31,32,67,307,40*7B
$GPRMC,181859,A,4005.9142,N,10510.0067,W,000.0,024.4,140413,008.7,E,D*05
$GPGSV,3,1,10,01,35,256,37,11,17,236,40,14,28,074,32,16,07,170,23*77
$GPGSV,3,2,10,20,38,309,39,22,12,137,36,23,14,278,37,25,18,046,31*70
$GPGSV,3,3,10,31,76,057,32,32,67,307,40*78
$GPRMC,181900,A,4005.9142,N,10510.0067,W,000.0,024.4,140413,008.7,E,D*08
$GPGSV,3,1,10,01,35,256,37,11,17,236,40,14,28,074,32,16,07,170,23*77
$GPGSV,3,2,10,20,38,309,39,22,12,137,36,23,14,278,37,25,18,046,31*70
$GPGSV,3,3,10,31,76,057,32,32,67,307,40*78
$GPRMC,181901,A,4005.9142,N,10510.0067,W,000.0,024.4,140413,008.7,E,D*09
$GPGSV,3,1,10,01,35,256,37,11,17,236,40,14,28,074,32,16,07,170,22*76
$GPGSV,3,2,10,20,38,309,39,22,12,137,36,23,14,278,37,25,18,046,31*70
$GPGSV,3,3,10,31,76,057,32,32,67,307,40*78
$GPRMC,181902,A,4005.9142,N,10510.0067,W,000.0,024.4,140413,008.7,E,D*0A
$GPGSV,3,1,10,01,35,256,37,11,17,236,40,14,28,074,32,16,07,170,22*76
$GPGSV,3,2,10,20,38,309,39,22,12,137,36,23,14,278,37,25,18,046,31*70
$GPGSV,3,3,10,31,76,057,32,32,67,307,40*78
$GPRMC,181903,A,4005.9142,N,10510.0067,W,000.0,024.4,140413,008.7,E,D*0B
$GPGSV,3,1,10,01,35,256,37,11,17,236,40,14,28,074,31,16,07,170,22*75
$GPGSV,3,2,10,20,38,309,39,22,12,137,36,23,14,278,37,25,18,046,31*70
$GPGSV,3,3,10,31,76,057,32,32,67,307,40*78
$GPRMC,181904,A,4005.9142,N,10510.0067,W,000.0,024.4,140413,008.7,E,D*0C
$GPGSV,3,1,10,01,35,256,37,11,17,236,40,14,28,074,30,16,07,170,22*74
$GPGSV,3,2,10,20,38,309,39,22,12,137,36,23,14,278,37,25,18,046,31*70
$GPGSV,3,3,10,31,76,057,32,32,67,307,40*78
$GPRMC,181905,A,4005.9142,N,10510.0067,W,000.0,024.4,140413,008.7,E,D*0D
$GPGSV,3,1,10,01,35,256,37,11,17,236,40,14,28,074,29,16,07,170,21*7F
$GPGSV,3,2,10,20,38,309,38,22,12,137,36,23,14,278,37,25,18,046,31*71
$GPGSV,3,3,10,31,76,057,32,32,67,307,40*78
$GPRMC,181906,A,4005.9142,N,10510.0067,W,000.0,024.4,140413,008.7,E,D*0E
$GPGSV,3,1,10,01,35,256,37,11,17,236,40,14,28,074,29,16,07,170,20*7E
$GPGSV,3,2,10,20,38,309,38,22,12,137,36,23,14,278,37,25,18,046,30*70
$GPGSV,3,3,10,31,76,057,32,32,67,307,40*78
$GPRMC,181907,A,4005.9142,N,10510.0067,W,000.0,024.4,140413,008.7,E,D*0F
$GPGSV,3,1,10,01,35,256,37,11,17,236,40,14,28,074,29,16,07,170,20*7E
$GPGSV,3,2,10,20,38,309,38,22,12,137,37,23,14,278,37,25,18,046,30*71
$GPGSV,3,3,10,31,76,057,32,32,67,307,40*78
$GPRMC,181908,A,4005.9142,N,10510.0067,W,000.0,024.4,140413,008.7,E,D*00
$GPGSV,3,1,10,01,35,256,37,11,17,236,40,14,28,074,30,16,07,170,21*77
$GPGSV,3,2,10,20,38,309,38,22,12,137,37,23,14,278,37,25,18,046,31*70
$GPGSV,3,3,10,31,76,057,32,32,67,307,40*78
$GPRMC,181909,A,4005.9142,N,10510.0067,W,000.0,024.4,140413,008.7,E,D*01
$GPGSV,3,1,10,01,35,256,37,11,17,236,40,14,28,074,30,16,07,170,21*77
$GPGSV,3,2,10,20,38,309,38,22,12,137,37,23,14,278,37,25,18,046,31*70
$GPGSV,3,3,10,31,76,057,32,32,67,307,40*78
$GPRMC,181910,A,4005.9142,N,10510.0067,W,000.0,024.4,140413,008.7,E,D*09
$GPGSV,3,1,10,01,35,256,37,11,17,236,40,14,28,074,30,16,07,170,21*77
$GPGSV,3,2,10,20,38,309,38,22,12,137,37,23,14,278,37,25,18,046,31*70
$GPGSV,3,3,10,31,76,057,32,32,67,307,40*78
$GPRMC,181911,A,4005.9142,N,10510.0067,W,000.0,024.4,140413,008.7,E,D*08
$GPGSV,3,1,10,01,35,256,37,11,17,236,40,14,28,074,30,16,07,170,21*77
$GPGSV,3,2,10,20,38,309,38,22,12,137,37,23,14,278,37,25,18,046,31*70
$GPGSV,3,3,10,31,76,057,32,32,67,307,40*78
$GPRMC,181912,A,4005.9142,N,10510.0067,W,000.0,024.4,140413,008.7,E,D*0B
$GPGSV,3,1,10,01,35,256,37,11,17,236,40,14,28,074,30,16,07,170,21*77
$GPGSV,3,2,10,20,38,309,37,22,12,137,37,23,14,278,37,25,18,046,31*7F
$GPGSV,3,3,10,31,76,057,32,32,67,307,40*78
$GPRMC,181913,A,4005.9142,N,10510.0067,W,000.0,024.4,140413,008.7,E,D*0A
$GPGSV,3,1,10,01,35,256,37,11,17,236,40,14,28,074,30,16,07,170,20*76
$GPGSV,3,2,10,20,38,309,37,22,12,137,37,23,14,278,37,25,18,046,31*7F
$GPGSV,3,3,10,31,76,057,32,32,67,307,40*78
$GPRMC,181914,A,4005.9142,N,10510.0067,W,000.0,024.4,140413,008.7,E,D*0D
$GPGSV,3,1,10,01,35,256,37,11,17,236,40,14,28,074,30,16,07,170,20*76
$GPGSV,3,2,10,20,38,309,36,22,12,137,37,23,14,278,37,25,18,046,31*7E
$GPGSV,3,3,10,31,76,057,32,32,67,307,40*78
$GPRMC,181915,A,4005.9142,N,10510.0067,W,000.0,024.4,140413,008.7,E,D*0C
$GPGSV,3,1,10,01,35,256,37,11,17,236,40,14,28,074,30,16,07,170,20*76
$GPGSV,3,2,10,20,38,309,36,22,12,137,37,23,14,278,37,25,18,046,31*7E
$GPGSV,3,3,10,31,76,057,32,32,67,307,40*78
$GPRMC,181916,A,4005.9142,N,10510.0067,W,000.0,024.4,140413,008.7,E,D*0F
$GPGSV,3,1,10,01,35,256,37,11,17,236,40,14,28,074,31,16,07,170,21*76
$GPGSV,3,2,10,20,38,309,36,22,12,137,37,23,14,278,37,25,18,046,31*7E
$GPGSV,3,3,10,31,76,057,32,32,67,307,40*78
$GPRMC,181917,A,4005.9142,N,10510.0067,W,000.0,024.4,140413,008.7,E,D*0E
$GPGSV,3,1,10,01,35,256,37,11,17,236,40,14,28,074,31,16,07,170,21*76
$GPGSV,3,2,10,20,38,309,36,22,12,137,37,23,14,278,37,25,18,046,30*7F
$GPGSV,3,3,10,31,76,057,32,32,67,307,41*79
$GPRMC,181918,A,4005.9142,N,10510.0067,W,000.0,024.4,140413,008.7,E,D*01
$GPGSV,3,1,10,01,35,256,37,11,17,236,40,14,28,074,31,16,07,170,21*76
$GPGSV,3,2,10,20,38,309,36,22,12,137,37,23,14,278,37,25,18,046,30*7F
$GPGSV,3,3,10,31,76,056,32,32,67,307,41*78
$GPRMC,181919,A,4005.9142,N,10510.0067,W,000.0,024.4,140413,008.7,E,D*00
$GPGSV,3,1,10,01,35,256,37,11,17,236,40,14,28,074,32,16,07,170,22*76
$GPGSV,3,2,10,20,38,309,36,22,12,137,37,23,14,278,37,25,18,046,29*77
$GPGSV,3,3,10,31,76,056,32,32,67,307,41*78
$GPRMC,181920,A,4005.9142,N,10510.0067,W,000.0,024.4,140413,008.7,E,D*0A
$GPGSV,3,1,10,01,35,256,38,11,17,236,40,14,28,074,32,16,07,170,22*79
$GPGSV,3,2,10,20,38,309,36,22,12,137,37,23,14,278,36,25,18,046,29*76
$GPGSV,3,3,10,31,76,056,32,32,67,307,41*78
$GPRMC,181921,A,4005.9142,N,10510.0067,W,000.0,024.4,140413,008.7,E,D*0B
$GPGSV,3,1,10,01,35,256,38,11,17,236,40,14,28,074,32,16,07,170,22*79
$GPGSV,3,2,10,20,38,309,36,22,12,137,37,23,14,278,36,25,18,046,30*7E
$GPGSV,3,3,10,31,76,056,32,32,67,307,41*78
$GPRMC,181922,A,4005.9143,N,10510.0067,W,000.0,024.4,140413,008.7,E,D*09
$GPGSV,3,1,10,01,35,256,38,11,17,236,40,14,28,074,32,16,07,170,22*79
$GPGSV,3,2,10,20,38,309,36,22,12,137,37,23,14,278,36,25,18,046,30*7E
$GPGSV,3,3,10,31,76,056,32,32,67,307,41*78
$GPRMC,181923,A,4005.9143,N,10510.0068,W,000.0,024.4,140413,008.7,E,D*07
$GPGSV,3,1,10,01,35,256,38,11,17,236,40,14,28,074,32,16,07,170,22*79
$GPGSV,3,2,10,20,38,309,36,22,12,137,37,23,14,278,36,25,18,046,30*7E
$GPGSV,3,3,10,31,76,056,32,32,67,307,41*78
$GPRMC,181924,A,4005.9143,N,10510.0068,W,000.0,024.4,140413,008.7,E,D*00
$GPGSV,3,1,10,01,35,256,38,11,17,236,40,14,28,074,32,16,07,170,22*79
$GPGSV,3,2,10,20,38,309,36,22,12,137,37,23,14,278,36,25,18,046,30*7E
$GPGSV,3,3,10,31,76,056,32,32,67,307,41*78
$GPRMC,181925,A,4005.9143,N,10510.0068,W,000.0,024.4,140413,008.7,E,D*01
$GPGSV,3,1,10,01,35,256,38,11,17,236,40,14,28,074,32,16,07,170,22*79
$GPGSV,3,2,10,20,38,309,36,22,12,137,37,23,14,278,35,25,18,046,30*7D
$GPGSV,3,3,10,31,76,056,32,32,67,307,41*78
$GPRMC,181926,A,4005.9143,N,10510.0068,W,000.0,024.4,140413,008.7,E,D*02
$GPGSV,3,1,10,01,35,256,38,11,17,236,40,14,28,074,32,16,07,170,22*79
$GPGSV,3,2,10,20,38,309,36,22,12,137,37,23,14,278,35,25,18,046,30*7D
$GPGSV,3,3,10,31,76,056,32,32,67,307,41*78
$GPRMC,181927,A,4005.9143,N,10510.0068,W,000.0,024.4,140413,008.7,E,D*03
$GPGSV,3,1,10,01,35,256,38,11,17,236,40,14,28,074,32,16,07,170,21*7A
$GPGSV,3,2,10,20,38,309,36,22,12,137,37,23,14,278,35,25,18,046,30*7D
$GPGSV,3,3,10,31,76,056,32,32,67,307,41*78
$GPRMC,181928,A,4005.9143,N,10510.0068,W,000.0,024.4,140413,008.7,E,D*0C
$GPGSV,3,1,10,01,35,256,38,11,17,236,40,14,28,074,32,16,07,170,20*7B
$GPGSV,3,2,10,20,38,309,36,22,12,137,37,23,14,278,35,25,18,046,30*7D
$GPGSV,3,3,10,31,76,056,32,32,67,307,41*78
$GPRMC,181929,A,4005.9143,N,10510.0068,W,000.0,024.4,140413,008.7,E,D*0D
$GPGSV,3,1,10,01,35,256,38,11,17,236,40,14,28,074,32,16,07,170,19*71
$GPGSV,3,2,10,20,38,309,36,22,12,137,37,23,14,278,35,25,18,046,30*7D
$GPGSV,3,3,10,31,76,056,32,32,67,307,41*78
$GPRMC,181930,A,4005.9143,N,10510.0068,W,000.0,024.4,140413,008.7,E,D*05
$GPGSV,3,1,10,01,35,256,38,11,17,236,40,14,28,074,32,16,07,170,18*70
$GPGSV,3,2,10,20,38,309,36,22,12,137,37,23,14,278,35,25,18,046,30*7D
$GPGSV,3,3,10,31,76,056,32,32,67,307,41*78
$GPRMC,181931,A,4005.9143,N,10510.0068,W,000.0,024.4,140413,008.7,E,D*04
$GPGSV,3,1,10,01,35,256,38,11,17,236,40,14,28,074,32,16,07,170,18*70
$GPGSV,3,2,10,20,38,309,36,22,12,137,37,23,14,278,35,25,18,046,30*7D
$GPGSV,3,3,10,31,76,056,32,32,67,307,41*78
$GPRMC,181932,A,4005.9143,N,10510.0068,W,000.0,024.4,140413,008.7,E,D*07
$GPGSV,3,1,10,01,35,256,38,11,17,236,40,14,28,074,32,16,07,170,18*70
$GPGSV,3,2,10,20,38,309,37,22,12,137,37,23,14,278,35,25,18,046,30*7C
$GPGSV,3,3,10,31,76,056,32,32,67,307,41*78
$GPRMC,181933,A,4005.9143,N,10510.0068,W,000.0,024.4,140413,008.7,E,D*06
$GPGSV,3,1,10,01,35,256,38,11,17,236,40,14,28,074,32,16,07,170,18*70
$GPGSV,3,2,10,20,38,309,37,22,12,137,37,23,14,278,36,25,18,046,30*7F
$GPGSV,3,3,10,31,76,056,32,32,67,307,41*78
$GPRMC,181934,A,4005.9143,N,10510.0068,W,000.0,024.4,140413,008.7,E,D*01
$GPGSV,3,1,10,01,35,256,38,11,17,236,40,14,28,074,32,16,07,170,18*70
$GPGSV,3,2,10,20,38,309,37,22,12,137,37,23,14,278,36,25,18,046,30*7F
$GPGSV,3,3,10,31,76,056,32,32,67,307,41*78
$GPRMC,181935,A,4005.9143,N,10510.0068,W,000.0,024.4,140413,008.7,E,D*00
$GPGSV,3,1,10,01,35,256,38,11,17,236,40,14,28,074,32,16,07,170,18*70
$GPGSV,3,2,10,20,38,309,37,22,12,137,37,23,14,278,36,25,18,046,31*7E
$GPGSV,3,3,10,31,76,056,32,32,67,307,41*78
$GPRMC,181936,A,4005.9143,N,10510.0068,W,000.0,024.4,140413,008.7,E,D*03
$GPGSV,3,1,10,01,35,256,38,11,17,236,40,14,28,074,32,16,07,170,18*70
$GPGSV,3,2,10,20,38,309,37,22,12,137,36,23,14,278,36,25,18,046,31*7F
$GPGSV,3,3,10,31,76,056,32,32,67,307,41*78
$GPRMC,181937,A,4005.9143,N,10510.0068,W,000.0,024.4,140413,008.7,E,D*02
$GPGSV,3,1,10,01,35,256,38,11,17,236,40,14,28,074,32,16,07,170,17*7F
$GPGSV,3,2,10,20,38,309,37,22,12,137,36,23,14,278,36,25,18,046,31*7F
$GPGSV,3,3,10,31,76,056,32,32,67,307,41*78
$GPRMC,181938,A,4005.9143,N,10510.0068,W,000.0,024.4,140413,008.7,E,D*0D
$GPGSV,3,1,10,01,35,256,38,11,17,236,40,14,28,074,32,16,07,170,17*7F
$GPGSV,3,2,10,20,38,309,36,22,12,137,36,23,14,278,35,25,18,046,31*7D
$GPGSV,3,3,10,31,76,056,32,32,67,307,41*78
$GPRMC,181939,A,4005.9143,N,10510.0068,W,000.0,024.4,140413,008.7,E,D*0C
$GPGSV,3,1,10,01,35,256,38,11,17,236,40,14,28,074,32,16,07,170,17*7F
$GPGSV,3,2,10,20,38,309,36,22,12,137,36,23,14,278,35,25,18,046,31*7D
$GPGSV,3,3,10,31,76,056,32,32,67,307,41*78
$GPRMC,181940,A,4005.9143,N,10510.0068,W,000.0,024.4,140413,008.7,E,D*02
$GPGSV,3,1,10,01,35,256,38,11,17,236,40,14,28,074,32,16,07,170,17*7F
$GPGSV,3,2,10,20,38,309,36,22,12,137,36,23,14,278,35,25,18,046,31*7D
$GPGSV,3,3,10,31,76,056,32,32,67,307,41*78
$GPRMC,181941,A,4005.9143,N,10510.0068,W,000.0,024.4,140413,008.7,E,D*03
$GPGSV,3,1,10,01,35,256,38,11,17,236,40,14,28,074,31,16,07,170,16*7D
$GPGSV,3,2,10,20,38,309,35,22,12,137,35,23,14,278,34,25,18,046,30*7D
$GPGSV,3,3,10,31,76,056,31,32,67,307,41*7B
$GPRMC,181942,A,4005.9143,N,10510.0068,W,000.0,024.4,140413,008.7,E,D*00
$GPGSV,3,1,10,01,35,256,38,11,17,236,40,14,28,074,31,16,07,170,15*7E
$GPGSV,3,2,10,20,38,309,35,22,12,137,35,23,14,279,34,25,18,046,29*74
$GPGSV,3,3,10,31,76,056,31,32,67,307,41*7B
$GPRMC,181943,A,4005.9143,N,10510.0068,W,000.0,024.4,140413,008.7,E,D*01
$GPGSV,3,1,10,01,35,256,38,11,17,236,40,14,28,074,31,16,07,170,15*7E
$GPGSV,3,2,10,20,38,309,35,22,12,137,35,23,14,279,34,25,18,046,29*74
$GPGSV,3,3,10,31,76,056,31,32,67,307,41*7B
$GPRMC,181944,A,4005.9143,N,10510.0068,W,000.0,024.4,140413,008.7,E,D*06
$GPGSV,3,1,10,01,35,256,38,11,17,236,40,14,28,074,31,16,07,170,15*7E
$GPGSV,3,2,10,20,38,309,35,22,12,137,35,23,14,279,35,25,18,046,28*74
$GPGSV,3,3,10,31,76,056,30,32,67,307,41*7A
$GPRMC,181945,A,4005.9143,N,10510.0068,W,000.0,024.4,140413,008.7,E,D*07
$GPGSV,3,1,10,01,35,256,38,11,17,236,41,14,28,074,32,16,07,170,14*7D
$GPGSV,3,2,10,20,38,309,36,22,12,137,35,23,14,279,35,25,18,046,28*77
$GPGSV,3,3,10,31,76,056,31,32,67,307,41*7B
$GPRMC,181946,A,4005.9143,N,10510.0068,W,000.0,024.4,140413,008.7,E,D*04
$GPGSV,3,1,10,01,35,256,38,11,17,236,41,14,28,074,32,20,38,309,35*7B
$GPGSV,3,2,10,22,12,137,35,23,14,279,35,25,18,046,26,31,76,056,31*7D
$GPGSV,3,3,10,32,67,307,41,16,07,170,00*7F
$GPRMC,181947,A,4005.9143,N,10510.0068,W,000.0,024.4,140413,008.7,E,D*05
$GPGSV,3,1,10,01,35,256,38,11,17,236,41,14,28,074,32,20,38,309,35*7B
$GPGSV,3,2,10,22,12,137,35,23,14,279,36,25,18,046,27,31,76,056,31*7F
$GPGSV,3,3,10,32,67,307,41,16,07,170,00*7F
$GPRMC,181948,A,4005.9143,N,10510.0068,W,000.0,024.4,140413,008.7,E,D*0A
$GPGSV,3,1,10,01,35,256,38,11,17,236,41,14,28,074,32,20,38,309,35*7B
$GPGSV,3,2,10,22,12,137,35,23,14,279,36,25,18,046,28,31,76,056,31*70
$GPGSV,3,3,10,32,67,307,41,16,07,170,00*7F
$GPRMC,181949,A,4005.9143,N,10510.0068,W,000.0,024.4,140413,008.7,E,D*0B
$GPGSV,3,1,10,01,35,256,38,11,17,236,41,14,28,074,31,20,38,309,35*78
$GPGSV,3,2,10,22,12,137,35,23,14,279,36,25,18,046,28,31,76,056,32*73
$GPGSV,3,3,10,32,67,307,41,16,07,170,00*7F
$GPRMC,181950,A,4005.9143,N,10510.0068,W,000.0,024.4,140413,008.7,E,D*03
$GPGSV,3,1,10,01,35,256,39,11,17,236,41,14,28,074,31,20,38,309,35*79
$GPGSV,3,2,10,22,12,137,35,23,14,279,36,25,18,046,29,31,75,056,32*71
$GPGSV,3,3,10,32,67,307,41,16,07,170,00*7F
$GPRMC,181951,A,4005.9143,N,10510.0068,W,000.0,024.4,140413,008.7,E,D*02
$GPGSV,3,1,10,01,35,256,39,11,17,236,41,14,28,074,31,20,38,309,35*79
$GPGSV,3,2,10,22,12,137,35,23,14,279,36,25,18,046,29,31,75,056,32*71
$GPGSV,3,3,10,32,68,307,41,16,07,170,00*70
$GPRMC,181952,A,4005.9143,N,10510.0068,W,000.0,024.4,140413,008.7,E,D*01
$GPGSV,3,1,10,01,35,256,39,11,17,236,41,14,28,074,31,20,38,309,35*79
$GPGSV,3,2,10,22,12,137,35,23,14,279,36,25,18,046,30,31,75,056,32*79
$GPGSV,3,3,10,32,68,307,41,16,07,170,00*70
$GPRMC,181953,A,4005.9143,N,10510.0068,W,000.0,024.4,140413,008.7,E,D*00
$GPGSV,3,1,10,01,35,256,39,11,17,236,41,14,28,074,30,20,38,309,35*78
$GPGSV,3,2,10,22,12,137,35,23,14,279,36,25,18,046,30,31,75,056,32*79
$GPGSV,3,3,10,32,68,307,41,16,07,170,00*70
$GPRMC,181954,A,4005.9143,N,10510.0068,W,000.0,024.4,140413,008.7,E,D*07
$GPGSV,3,1,10,01,35,256,39,11,17,236,41,14,28,074,30,20,38,309,35*78
$GPGSV,3,2,10,22,12,137,35,23,14,279,36,25,18,046,31,31,75,056,32*78
$GPGSV,3,3,10,32,68,307,41,16,07,170,00*70
$GPRMC,181955,A,4005.9144,N,10510.0068,W,000.0,024.4,140413,008.7,E,D*01
$GPGSV,3,1,10,01,35,256,39,11,17,236,41,14,28,074,30,20,38,309,35*78
$GPGSV,3,2,10,22,12,137,35,23,14,279,36,25,18,046,31,31,75,056,32*78
$GPGSV,3,3,10,32,68,307,41,16,07,170,00*70
$GPRMC,181956,A,4005.9144,N,10510.0068,W,000.0,024.4,140413,008.7,E,D*02
$GPGSV,3,1,10,01,35,256,39,11,17,236,41,14,28,074,30,20,38,309,35*78
$GPGSV,3,2,10,22,12,137,35,23,14,279,36,25,18,046,31,31,75,056,31*7B
$GPGSV,3,3,10,32,68,307,41,16,07,170,00*70
$GPRMC,181957,A,4005.9144,N,10510.0068,W,000.0,024.4,140413,008.7,E,D*03
$GPGSV,3,1,10,01,35,256,38,11,17,236,41,14,28,074,30,20,38,309,35*79
$GPGSV,3,2,10,22,12,137,34,23,14,279,36,25,18,046,31,31,75,056,31*7A
$GPGSV,3,3,10,32,68,307,41,16,07,170,00*70
$GPRMC,181958,A,4005.9144,N,10510.0068,W,000.0,024.4,140413,008.7,E,D*0C
$GPGSV,3,1,10,01,35,256,38,11,17,236,41,14,28,074,30,20,38,309,34*78
$GPGSV,3,2,10,22,12,137,33,23,14,279,36,25,18,046,30,31,75,056,31*7C
$GPGSV,3,3,10,32,68,307,41,16,07,170,00*70
$GPRMC,181959,A,4005.9144,N,10510.0068,W,000.0,024.4,140413,008.7,E,D*0D
$GPGSV,3,1,10,01,35,256,38,11,17,236,41,14,28,074,29,20,38,309,34*70
$GPGSV,3,2,10,22,12,137,33,23,14,279,36,25,18,046,30,31,75,056,31*7C
$GPGSV,3,3,10,32,68,307,41,16,07,170,00*70
$GPRMC,182000,A,4005.9144,N,10510.0068,W,000.0,024.4,140413,008.7,E,D*0B
$GPGSV,3,1,10,01,35,256,38,11,17,236,41,14,28,074,28,20,38,309,34*71
$GPGSV,3,2,10,22,12,137,33,23,14,279,36,25,18,046,30,31,75,056,31*7C
$GPGSV,3,3,10,32,68,307,41,16,07,170,00*70
$GPRMC,182001,A,4005.9144,N,10510.0068,W,000.0,024.4,140413,008.7,E,D*0A
$GPGSV,3,1,10,01,35,256,38,11,17,236,41,14,28,074,27,20,38,309,34*7E
$GPGSV,3,2,10,22,12,137,32,23,14,279,35,25,18,046,30,31,75,056,31*7E
$GPGSV,3,3,10,32,68,307,41,16,07,170,00*70
$GPRMC,182002,A,4005.9144,N,10510.0068,W,000.0,024.4,140413,008.7,E,D*09
$GPGSV,3,1,10,01,35,256,38,11,17,235,41,14,28,074,27,20,38,309,34*7D
$GPGSV,3,2,10,22,12,137,32,23,14,279,35,25,18,046,30,31,75,056,31*7E
$GPGSV,3,3,10,32,68,307,41,16,07,170,00*70
$GPRMC,182003,A,4005.9144,N,10510.0068,W,000.0,024.4,140413,008.7,E,D*08
$GPGSV,3,1,10,01,35,256,37,11,17,235,41,14,28,074,27,20,38,309,34*72
$GPGSV,3,2,10,22,12,137,32,23,14,279,35,25,18,046,29,31,75,056,31*76
$GPGSV,3,3,10,32,68,307,41,16,07,170,00*70
$GPRMC,182004,A,4005.9144,N,10510.0068,W,000.0,024.4,140413,008.7,E,D*0F
$GPGSV,3,1,10,01,35,256,37,11,17,235,41,14,28,074,27,20,38,309,34*72
$GPGSV,3,2,10,22,12,137,32,23,14,279,34,25,18,046,29,31,75,056,31*77
$GPGSV,3,3,10,32,68,307,41,16,07,170,00*70
$GPRMC,182005,A,4005.9144,N,10510.0068,W,000.0,024.4,140413,008.7,E,D*0E
$GPGSV,3,1,10,01,35,256,37,11,17,235,40,14,28,074,26,20,38,309,35*73
$GPGSV,3,2,10,22,12,137,32,23,14,279,34,25,18,046,29,31,75,056,31*77
$GPGSV,3,3,10,32,68,307,41,16,07,170,00*70
$GPRMC,182006,A,4005.9144,N,10510.0068,W,000.0,024.4,140413,008.7,E,D*0D
$GPGSV,3,1,10,01,35,256,29,11,17,235,26,14,28,074,17,20,38,309,26*7C
$GPGSV,3,2,10,22,12,137,24,23,14,279,27,25,18,046,22,31,75,056,24*7D
$GPGSV,3,3,10,32,68,307,32,16,07,170,00*74
$GPRMC,182007,A,4005.9144,N,10510.0068,W,000.0,024.4,140413,008.7,E,D*0C
$GPGSV,3,1,10,01,35,256,29,11,17,235,26,14,28,074,17,20,38,309,26*7C
$GPGSV,3,2,10,22,12,137,24,23,14,279,27,25,18,046,22,31,75,056,24*7D
$GPGSV,3,3,10,32,68,307,32,16,07,170,00*74
$GPRMC,182008,A,4005.9144,N,10510.0068,W,000.0,024.4,140413,008.7,E,D*03
$GPGSV,3,1,10,01,35,256,30,11,17,235,27,14,28,074,17,20,38,309,27*74
$GPGSV,3,2,10,22,12,137,25,23,14,279,28,25,18,046,22,31,75,056,26*71
$GPGSV,3,3,10,32,68,307,33,16,07,170,00*75
$GPRMC,182009,A,4005.9144,N,10510.0068,W,000.0,024.4,140413,008.7,E,D*02
$GPGSV,3,1,10,01,35,256,30,11,17,235,27,14,28,074,17,20,38,309,27*74
$GPGSV,3,2,10,22,12,137,25,23,14,279,28,25,18,046,22,31,75,056,26*71
$GPGSV,3,3,10,32,68,307,33,16,07,170,00*75
$GPRMC,182010,A,4005.9144,N,10510.0068,W,000.0,024.4,140413,008.7,E,D*0A
$GPGSV,3,1,10,01,35,256,30,11,17,235,27,14,28,074,17,20,38,309,27*74
$GPGSV,3,2,10,22,12,137,24,23,14,279,28,25,18,046,21,31,75,056,26*73
$GPGSV,3,3,10,32,68,307,33,16,07,170,00*75
$GPRMC,182011,A,4005.9144,N,10510.0068,W,000.0,024.4,140413,008.7,E,D*0B
$GPGSV,3,1,10,01,35,256,30,11,17,235,27,14,28,074,17,20,38,309,27*74
$GPGSV,3,2,10,22,12,137,24,23,14,279,28,25,18,046,21,31,75,056,26*73
$GPGSV,3,3,10,32,68,307,33,16,07,170,00*75
$GPRMC,182012,A,4005.9144,N,10510.0068,W,000.0,024.4,140413,008.7,E,D*08
$GPGSV,3,1,10,01,35,256,30,11,17,235,27,14,28,074,18,20,38,309,27*7B
$GPGSV,3,2,10,22,12,137,24,23,14,279,28,25,18,046,21,31,75,056,25*70
$GPGSV,3,3,10,32,68,307,33,16,07,170,00*75
$GPRMC,182013,A,4005.9144,N,10510.0068,W,000.0,024.4,140413,008.7,E,D*09
$GPGSV,3,1,10,01,35,256,30,11,17,235,27,14,28,074,18,20,38,309,26*7A
$GPGSV,3,2,10,22,12,137,23,23,14,279,28,25,18,046,21,31,75,056,25*77
$GPGSV,3,3,10,32,68,307,32,16,07,170,00*74
$GPRMC,182014,A,4005.9144,N,10510.0068,W,000.0,024.4,140413,008.7,E,D*0E
$GPGSV,3,1,10,01,35,256,30,11,17,235,27,14,28,074,17,20,38,309,26*75
$GPGSV,3,2,10,22,12,137,22,23,15,279,28,25,18,046,23,31,75,056,25*75
$GPGSV,3,3,10,32,68,307,33,16,07,170,00*75
$GPRMC,182015,A,4005.9144,N,10510.0068,W,000.0,024.4,140413,008.7,E,D*0F
$GPGSV,3,1,10,01,35,256,30,11,17,235,27,14,28,074,18,20,38,309,26*7A
$GPGSV,3,2,10,22,12,137,22,23,15,279,28,25,18,046,24,31,75,056,25*72
$GPGSV,3,3,10,32,68,307,34,16,07,170,00*72
$GPRMC,182016,A,4005.9144,N,10510.0068,W,000.0,024.4,140413,008.7,E,D*0C
$GPGSV,3,1,10,01,35,256,31,11,17,235,28,14,28,074,19,20,38,309,27*74
$GPGSV,3,2,10,22,12,137,23,23,15,279,29,25,18,046,26,31,75,056,26*73
$GPGSV,3,3,10,32,68,307,35,16,07,170,00*73
$GPRMC,182017,A,4005.9144,N,10510.0068,W,000.0,024.4,140413,008.7,E,D*0D
$GPGSV,3,1,10,01,35,256,31,11,17,235,28,14,28,074,18,20,38,309,27*75
$GPGSV,3,2,10,22,12,137,22,23,15,279,29,25,18,046,25,31,75,056,26*71
$GPGSV,3,3,10,32,68,307,34,16,07,170,00*72
$GPRMC,182018,A,4005.9144,N,10510.0068,W,000.0,024.4,140413,008.7,E,D*02
$GPGSV,3,1,10,01,35,256,31,11,17,235,28,14,28,074,18,20,38,309,27*75
$GPGSV,3,2,10,22,12,137,23,23,15,279,29,25,18,046,24,31,75,056,26*71
$GPGSV,3,3,10,32,68,307,34,16,07,170,00*72
$GPRMC,182019,A,4005.9144,N,10510.0068,W,000.0,024.4,140413,008.7,E,D*03
$GPGSV,3,1,10,01,35,256,31,11,17,235,28,14,28,074,19,20,38,309,27*74
$GPGSV,3,2,10,22,12,137,23,23,15,279,30,25,18,046,25,31,75,056,26*78
$GPGSV,3,3,10,32,68,307,34,16,07,170,00*72
$GPRMC,182020,A,4005.9144,N,10510.0068,W,000.0,024.4,140413,008.7,E,D*09
$GPGSV,3,1,10,01,35,256,31,11,17,235,28,14,28,074,18,20,38,309,26*74
$GPGSV,3,2,10,22,12,137,23,23,15,279,30,25,18,046,24,31,75,056,26*79
$GPGSV,3,3,10,32,68,307,33,16,07,170,00*75
$GPRMC,182021,A,4005.9144,N,10510.0068,W,000.0,024.4,140413,008.7,E,D*08
$GPGSV,3,1,10,01,35,256,30,11,17,235,27,14,28,074,18,20,38,309,26*7A
$GPGSV,3,2,10,22,12,137,22,23,15,279,29,25,18,046,24,31,75,056,26*70
$GPGSV,3,3,10,32,68,307,33,16,07,170,00*75
$GPRMC,182022,A,4005.9144,N,10510.0068,W,000.0,024.4,140413,008.7,E,D*0B
$GPGSV,3,1,10,01,35,256,30,11,17,235,27,14,28,074,19,20,38,309,26*7B
$GPGSV,3,2,10,22,12,137,22,23,15,279,29,25,18,046,24,31,75,055,26*73
$GPGSV,3,3,10,32,68,307,33,16,07,170,00*75
$GPRMC,182023,A,4005.9144,N,10510.0068,W,000.0,024.4,140413,008.7,E,D*0A
$GPGSV,3,1,10,01,35,256,30,11,17,235,27,14,28,074,19,20,38,309,26*7B
$GPGSV,3,2,10,22,12,137,21,23,15,279,29,25,18,046,24,31,75,055,26*70
$GPGSV,3,3,10,32,68,307,33,16,07,170,00*75
$GPRMC,182024,A,4005.9144,N,10510.0068,W,000.0,024.4,140413,008.7,E,D*0D
$GPGSV,3,1,10,01,34,256,30,11,17,235,27,14,28,074,20,20,38,309,26*70
$GPGSV,3,2,10,22,12,137,21,23,15,279,29,25,18,046,25,31,75,055,26*71
$GPGSV,3,3,10,32,68,307,33,16,07,170,00*75
$GPRMC,182025,A,4005.9144,N,10510.0068,W,000.0,024.4,140413,008.7,E,D*0C
$GPGSV,3,1,10,01,34,256,29,11,17,235,26,14,28,074,20,20,38,309,25*7A
$GPGSV,3,2,10,22,12,137,20,23,15,279,29,25,18,046,25,31,75,055,26*70
$GPGSV,3,3,10,32,68,307,32,16,07,170,00*74
$GPRMC,182026,A,4005.9144,N,10510.0069,W,000.0,024.4,140413,008.7,E,D*0E
$GPGSV,3,1,10,01,34,256,29,11,17,235,26,14,28,074,20,20,38,309,25*7A
$GPGSV,3,2,10,22,12,137,19,23,15,279,29,25,18,046,25,31,75,055,26*7A
$GPGSV,3,3,10,32,68,307,32,16,07,170,00*74
$GPRMC,182027,A,4005.9144,N,10510.0069,W,000.0,024.4,140413,008.7,E,D*0F
$GPGSV,3,1,10,01,34,256,30,11,17,235,26,14,28,074,20,20,38,309,25*72
$GPGSV,3,2,10,22,12,137,19,23,15,279,29,25,18,046,25,31,75,055,26*7A
$GPGSV,3,3,10,32,68,307,32,16,07,170,00*74
$GPRMC,182028,A,4005.9144,N,10510.0069,W,000.0,024.4,140413,008.7,E,D*00
$GPGSV,3,1,10,01,34,256,31,11,17,235,27,14,28,074,22,20,38,309,26*73
$GPGSV,3,2,10,22,12,137,20,23,15,279,30,25,18,046,26,31,75,055,27*7A
$GPGSV,3,3,10,32,68,307,33,16,07,170,00*75
$GPRMC,182029,A,4005.9144,N,10510.0069,W,000.0,024.4,140413,008.7,E,D*01
$GPGSV,3,1,10,01,34,256,31,11,17,235,26,14,28,074,22,20,38,309,26*72
$GPGSV,3,2,10,22,12,137,20,23,15,279,30,25,18,046,26,31,75,055,27*7A
$GPGSV,3,3,10,32,68,307,33,16,07,170,00*75
$GPRMC,182030,A,4005.9144,N,10510.0069,W,000.0,024.4,140413,008.7,E,D*09
$GPGSV,3,1,10,01,34,256,30,11,17,235,26,14,28,074,21,20,38,309,26*70
$GPGSV,3,2,10,22,12,137,19,23,15,279,29,25,18,046,25,31,75,055,27*7B
$GPGSV,3,3,10,32,68,307,32,16,07,170,00*74
$GPRMC,182031,A,4005.9144,N,10510.0069,W,000.0,024.4,140413,008.7,E,D*08
$GPGSV,3,1,10,01,34,256,32,11,17,235,26,14,28,074,23,20,38,309,27*71
$GPGSV,3,2,10,22,12,137,20,23,15,279,30,25,18,046,27,31,75,055,29*75
$GPGSV,3,3,10,32,68,307,33,16,07,170,00*75
$GPRMC,182032,A,4005.9145,N,10510.0069,W,000.0,024.4,140413,008.7,E,D*0A
$GPGSV,3,1,10,01,34,256,31,11,17,235,26,14,28,074,23,20,38,309,27*72
$GPGSV,3,2,10,22,12,137,21,23,15,279,29,25,18,046,26,31,75,055,28*7C
$GPGSV,3,3,10,32,68,307,33,16,07,170,00*75
$GPRMC,182033,A,4005.9145,N,10510.0069,W,000.0,024.4,140413,008.7,E,D*0B
$GPGSV,3,1,10,01,34,256,31,11,17,235,26,14,28,074,24,20,38,309,27*75
$GPGSV,3,2,10,22,12,137,20,23,15,279,28,25,18,046,26,31,75,055,28*7C
$GPGSV,3,3,10,32,68,307,33,16,07,170,00*75
$GPRMC,182034,A,4005.9145,N,10510.0069,W,000.0,024.4,140413,008.7,E,D*0C
$GPGSV,3,1,10,01,34,256,31,11,17,235,26,14,28,074,24,20,38,309,27*75
$GPGSV,3,2,10,22,12,137,19,23,15,279,28,25,18,046,25,31,75,055,27*7A
$GPGSV,3,3,10,32,68,307,33,16,07,170,00*75
$GPRMC,182035,A,4005.9145,N,10510.0069,W,000.0,024.4,140413,008.7,E,D*0D
$GPGSV,3,1,10,01,34,256,31,11,17,235,26,14,28,074,24,20,38,309,27*75
$GPGSV,3,2,10,22,12,137,19,23,15,279,27,25,18,046,25,31,75,055,27*75
$GPGSV,3,3,10,32,68,307,33,16,07,170,00*75
$GPRMC,182036,A,4005.9145,N,10510.0069,W,000.0,024.4,140413,008.7,E,D*0E
$GPGSV,3,1,10,01,34,256,31,11,17,235,26,14,28,074,24,20,38,309,27*75
$GPGSV,3,2,10,22,12,137,18,23,15,279,27,25,18,046,25,31,75,055,27*74
$GPGSV,3,3,10,32,68,307,33,16,07,170,00*75
$GPRMC,182037,A,4005.9145,N,10510.0069,W,000.0,024.4,140413,008.7,E,D*0F
$GPGSV,3,1,10,01,34,256,30,11,17,235,25,14,28,074,24,20,38,309,26*76
$GPGSV,3,2,10,22,12,137,17,23,15,279,26,25,18,046,25,31,75,055,27*7A
$GPGSV,3,3,10,32,68,307,32,16,07,170,00*74
$GPRMC,182038,A,4005.9145,N,10510.0069,W,000.0,024.4,140413,008.7,E,D*00
$GPGSV,3,1,10,01,34,256,30,11,17,235,25,14,28,074,24,20,38,309,26*76
$GPGSV,3,2,10,22,12,137,17,23,15,279,26,25,18,046,24,31,75,055,27*7B
$GPGSV,3,3,10,32,68,307,32,16,07,170,00*74
$GPRMC,182039,A,4005.9145,N,10510.0069,W,000.0,024.4,140413,008.7,E,D*01
$GPGSV,3,1,10,01,34,256,30,11,17,235,25,14,28,074,24,20,38,309,26*76
$GPGSV,3,2,10,22,12,137,17,23,15,279,26,25,18,046,24,31,75,055,27*7B
$GPGSV,3,3,10,32,68,307,31,16,07,170,00*77
$GPRMC,182040,A,4005.9145,N,10510.0069,W,000.0,024.4,140413,008.7,E,D*0F
$GPGSV,3,1,10,01,34,256,30,11,17,235,25,14,28,074,24,20,38,309,25*75
$GPGSV,3,2,10,22,12,137,17,23,15,279,25,25,18,046,24,31,75,055,27*78
$GPGSV,3,3,10,32,68,307,31,16,07,170,00*77
$GPRMC,182041,A,4005.9145,N,10510.0069,W,000.0,024.4,140413,008.7,E,D*0E
$GPGSV,3,1,10,01,34,256,30,11,17,235,25,14,28,074,24,20,38,309,25*75
$GPGSV,3,2,10,22,12,137,17,23,15,279,25,25,18,046,24,31,75,055,27*78
$GPGSV,3,3,10,32,68,307,31,16,07,170,00*77
$GPRMC,182042,A,4005.9145,N,10510.0069,W,000.0,024.4,140413,008.7,E,D*0D
$GPGSV,3,1,10,01,34,256,29,11,17,235,25,14,28,074,24,20,38,309,25*7D
$GPGSV,3,2,10,22,12,137,17,23,15,279,25,25,18,046,23,31,75,055,27*7F
$GPGSV,3,3,10,32,68,307,31,16,07,170,00*77
$GPRMC,182043,A,4005.9145,N,10510.0069,W,000.0,024.4,140413,008.7,E,D*0C
$GPGSV,3,1,10,01,34,256,29,11,17,235,25,14,28,074,24,20,38,309,25*7D
$GPGSV,3,2,10,22,12,137,17,23,15,279,25,25,18,046,23,31,75,055,27*7F
$GPGSV,3,3,10,32,68,307,31,16,07,170,00*77
$GPRMC,182044,A,4005.9145,N,10510.0069,W,000.0,024.4,140413,008.7,E,D*0B
$GPGSV,3,1,10,01,34,256,29,11,17,235,25,14,28,074,24,20,38,309,26*7E
$GPGSV,3,2,10,22,12,137,16,23,15,279,25,25,18,046,23,31,75,055,27*7E
$GPGSV,3,3,10,32,68,307,31,16,07,170,00*77
$GPRMC,182045,A,4005.9145,N,10510.0069,W,000.0,024.4,140413,008.7,E,D*0A
$GPGSV,3,1,10,01,34,256,29,11,17,235,24,14,28,074,24,20,38,309,26*7F
$GPGSV,3,2,10,22,11,137,16,23,15,279,25,25,18,046,23,31,75,055,27*7D
$GPGSV,3,3,10,32,68,307,31,16,07,170,00*77
$GPRMC,182046,A,4005.9145,N,10510.0069,W,000.0,024.4,140413,008.7,E,D*09
$GPGSV,3,1,10,01,34,256,29,11,17,235,24,14,28,074,25,20,38,309,26*7E
$GPGSV,3,2,10,22,11,137,16,23,15,279,25,25,18,046,24,31,75,055,27*7A
$GPGSV,3,3,10,32,68,307,31,16,07,170,00*77
$GPRMC,182047,A,4005.9145,N,10510.0069,W,000.0,024.4,140413,008.7,E,D*08
$GPGSV,3,1,10,01,34,256,29,11,17,235,24,14,28,074,25,20,38,309,26*7E
$GPGSV,3,2,10,22,11,137,16,23,15,279,25,25,18,046,25,31,75,055,27*7B
$GPGSV,3,3,10,32,68,307,31,16,07,170,00*77
$GPRMC,182048,A,4005.9145,N,10510.0069,W,000.0,024.4,140413,008.7,E,D*07
$GPGSV,3,1,10,01,34,256,29,11,17,235,24,14,28,074,25,20,38,309,26*7E
$GPGSV,3,2,10,22,11,137,16,23,15,279,25,25,18,046,24,31,75,055,27*7A
$GPGSV,3,3,10,32,68,307,31,16,07,170,00*77
$GPRMC,182049,A,4005.9145,N,10510.0069,W,000.0,024.4,140413,008.7,E,D*06
$GPGSV,3,1,10,01,34,256,30,11,17,235,25,14,28,074,26,20,38,309,27*75
$GPGSV,3,2,10,22,11,137,16,23,15,279,26,25,18,046,24,31,75,055,27*79
$GPGSV,3,3,10,32,68,307,32,16,07,170,00*74
$GPRMC,182050,A,4005.9145,N,10510.0069,W,000.0,024.4,140413,008.7,E,D*0E
$GPGSV,3,1,10,01,34,256,31,11,17,235,26,14,28,074,26,20,38,309,28*78
$GPGSV,3,2,10,22,11,137,16,23,15,279,26,25,18,046,24,31,75,055,28*76
$GPGSV,3,3,10,32,68,307,33,16,07,170,00*75
$GPRMC,182051,A,4005.9145,N,10510.0069,W,000.0,024.4,140413,008.7,E,D*0F
$GPGSV,3,1,10,01,34,256,31,11,17,235,26,14,28,074,26,20,38,309,28*78
$GPGSV,3,2,10,22,11,137,16,23,15,279,26,25,18,046,24,31,75,055,28*76
$GPGSV,3,3,10,32,68,307,33,16,07,170,00*75
$GPRMC,182052,A,4005.9145,N,10510.0069,W,000.0,024.4,140413,008.7,E,D*0C
$GPGSV,3,1,10,01,34,256,31,11,17,235,26,14,28,074,27,20,38,309,29*78
$GPGSV,3,2,10,22,11,137,15,23,15,279,27,25,18,046,24,31,75,055,28*74
$GPGSV,3,3,10,32,68,307,34,16,07,170,00*72
$GPRMC,182053,A,4005.9145,N,10510.0069,W,000.0,024.4,140413,008.7,E,D*0D
$GPGSV,3,1,10,01,34,256,31,11,17,235,27,14,28,074,28,20,38,309,30*7E
$GPGSV,3,2,10,22,11,137,16,23,15,279,27,25,18,046,25,31,75,055,29*77
$GPGSV,3,3,10,32,68,307,34,16,07,170,00*72
$GPRMC,182054,A,4005.9145,N,10510.0069,W,000.0,024.4,140413,008.7,E,D*0A
$GPGSV,3,1,10,01,34,256,31,11,17,235,27,14,28,074,28,20,38,309,29*76
$GPGSV,3,2,10,22,11,137,16,23,15,279,28,25,18,046,24,31,75,055,29*79
$GPGSV,3,3,10,32,68,307,34,16,07,170,00*72
$GPRMC,182055,A,4005.9145,N,10510.0069,W,000.0,024.4,140413,008.7,E,D*0B
$GPGSV,3,1,10,01,34,256,30,11,17,235,26,14,28,074,27,20,38,309,28*78
$GPGSV,3,2,10,22,11,137,15,23,15,279,27,25,18,046,24,31,75,055,28*74
$GPGSV,3,3,10,32,68,307,33,16,07,170,00*75
$GPRMC,182056,A,4005.9145,N,10510.0069,W,000.0,024.4,140413,008.7,E,D*08
$GPGSV,3,1,10,01,34,255,30,11,17,235,25,14,28,074,26,20,38,309,28*79
$GPGSV,3,2,10,22,11,137,14,23,15,279,26,25,18,046,24,31,75,055,28*74
$GPGSV,3,3,10,32,68,307,33,16,07,170,00*75
$GPRMC,182057,A,4005.9145,N,10510.0069,W,000.0,024.4,140413,008.7,E,D*09
$GPGSV,3,1,10,01,34,255,31,11,17,235,25,14,28,074,26,20,38,309,28*78
$GPGSV,3,2,10,23,15,279,26,25,18,046,24,31,75,055,28,32,68,307,33*7F
$GPGSV,3,3,10,16,07,170,00,22,12,137,00*78
$GPRMC,182058,A,4005.9145,N,10510.0069,W,000.0,024.4,140413,008.7,E,D*06
$GPGSV,3,1,10,01,34,255,31,11,17,235,25,14,28,074,26,20,38,309,28*78
$GPGSV,3,2,10,23,15,279,26,25,18,046,24,31,75,055,28,32,68,307,33*7F
$GPGSV,3,3,10,16,07,170,00,22,12,137,00*78
$GPRMC,182059,A,4005.9145,N,10510.0069,W,000.0,024.4,140413,008.7,E,D*07
$GPGSV,3,1,10,01,34,255,31,11,17,235,25,14,28,074,26,20,38,309,28*78
$GPGSV,3,2,10,23,15,279,26,25,18,046,24,31,75,055,28,32,68,307,33*7F
$GPGSV,3,3,10,16,07,170,00,22,12,137,00*78
$GPRMC,182100,A,4005.9145,N,10510.0069,W,000.0,024.4,140413,008.7,E,D*0A
$GPGSV,3,1,10,01,34,255,30,11,17,235,25,14,28,074,26,20,38,309,28*79
$GPGSV,3,2,10,23,15,279,26,25,18,046,25,31,75,055,28,32,68,307,32*7F
$GPGSV,3,3,10,16,07,170,00,22,12,137,00*78
$GPRMC,182101,A,4005.9145,N,10510.0069,W,000.0,024.4,140413,008.7,E,D*0B
$GPGSV,3,1,10,01,34,255,30,11,17,235,25,14,28,074,26,20,38,309,27*76
$GPGSV,3,2,10,22,11,137,15,23,15,279,26,25,18,046,25,31,75,055,28*74
$GPGSV,3,3,10,32,68,307,32,16,07,170,00*74
$GPRMC,182102,A,4005.9145,N,10510.0069,W,000.0,024.4,140413,008.7,E,D*08
$GPGSV,3,1,10,01,34,255,30,11,17,235,25,14,28,074,26,20,38,309,28*79
$GPGSV,3,2,10,23,15,279,26,25,18,046,25,31,75,055,28,32,68,307,32*7F
$GPGSV,3,3,10,16,07,170,00,22,12,137,00*78
$GPRMC,182103,A,4005.9145,N,10510.0069,W,000.0,024.4,140413,008.7,E,D*09
$GPGSV,3,1,10,01,34,255,30,11,17,235,25,14,28,074,26,20,38,309,28*79
$GPGSV,3,2,10,23,15,279,26,25,18,046,24,31,75,055,27,32,68,307,32*71
$GPGSV,3,3,10,16,07,170,00,22,12,137,00*78
$GPRMC,182104,A,4005.9145,N,10510.0069,W,000.0,024.4,140413,008.7,E,D*0E
$GPGSV,3,1,10,01,34,255,30,11,17,235,25,14,28,074,25,20,38,309,27*75
$GPGSV,3,2,10,23,15,279,26,25,18,046,24,31,75,055,27,32,68,307,32*71
$GPGSV,3,3,10,16,07,170,00,22,12,137,00*78
$GPRMC,182105,A,4005.9145,N,10510.0069,W,000.0,024.4,140413,008.7,E,D*0F
$GPGSV,3,1,10,01,34,255,30,11,17,235,25,14,28,074,25,20,38,309,27*75
$GPGSV,3,2,10,23,15,279,26,25,18,046,24,31,75,055,27,32,68,307,32*71
$GPGSV,3,3,10,16,07,170,00,22,12,137,00*78
$GPRMC,182106,A,4005.9145,N,10510.0069,W,000.0,024.4,140413,008.7,E,D*0C
$GPGSV,3,1,10,01,34,255,30,11,16,235,26,14,28,074,25,20,38,309,27*77
$GPGSV,3,2,10,22,11,137,18,23,15,279,26,25,18,046,24,31,75,055,27*77
$GPGSV,3,3,10,32,68,307,32,16,07,170,00*74
$GPRMC,182107,A,4005.9145,N,10510.0069,W,000.0,024.4,140413,008.7,E,D*0D
$GPGSV,3,1,10,01,34,255,29,11,16,235,25,14,28,074,25,20,38,309,27*7C
$GPGSV,3,2,10,22,11,137,18,23,15,279,26,25,18,046,24,31,75,055,27*77
$GPGSV,3,3,10,32,68,307,32,16,07,170,00*74
$GPRMC,182108,A,4005.9145,N,10510.0069,W,000.0,024.4,140413,008.7,E,D*02
$GPGSV,3,1,10,01,34,255,29,11,16,235,25,14,28,074,25,20,38,309,27*7C
$GPGSV,3,2,10,22,11,137,16,23,15,279,26,25,18,046,23,31,75,055,27*7E
$GPGSV,3,3,10,32,68,307,32,16,07,170,00*74
$GPRMC,182109,A,4005.9145,N,10510.0069,W,000.0,024.4,140413,008.7,E,D*03
$GPGSV,3,1,10,01,34,255,28,11,16,235,24,14,27,074,24,20,38,309,27*72
$GPGSV,3,2,10,22,11,137,16,23,15,279,25,25,18,046,23,31,75,055,27*7D
$GPGSV,3,3,10,32,68,307,32,16,07,170,00*74
$GPRMC,182110,A,4005.9145,N,10510.0069,W,000.0,024.4,140413,008.7,E,D*0B
$GPGSV,3,1,10,01,34,255,28,11,16,235,24,14,27,074,23,20,38,309,26*74
$GPGSV,3,2,10,22,11,137,17,23,15,279,25,25,18,046,22,31,75,055,26*7C
$GPGSV,3,3,10,32,68,307,32,16,07,170,00*74
$GPRMC,182111,A,4005.9145,N,10510.0069,W,000.0,024.4,140413,008.7,E,D*0A
$GPGSV,3,1,10,01,34,255,27,11,16,235,24,14,27,074,23,20,38,309,26*7B
$GPGSV,3,2,10,22,11,137,17,23,15,279,25,25,18,046,22,31,75,055,26*7C
$GPGSV,3,3,10,32,68,307,32,16,07,170,00*74
$GPRMC,182112,A,4005.9145,N,10510.0069,W,000.0,024.4,140413,008.7,E,D*09
$GPGSV,3,1,10,01,34,255,27,11,16,235,24,14,27,074,22,20,38,309,26*7A
$GPGSV,3,2,10,22,11,137,17,23,15,279,25,25,18,046,22,31,75,055,26*7C
$GPGSV,3,3,10,32,68,307,32,16,07,170,00*74
$GPRMC,182113,A,4005.9145,N,10510.0069,W,000.0,024.4,140413,008.7,E,D*08
$GPGSV,3,1,10,01,34,255,27,11,16,235,24,14,27,074,22,20,38,309,26*7A
$GPGSV,3,2,10,22,11,137,17,23,15,279,25,25,18,046,21,31,75,055,26*7F
$GPGSV,3,3,10,32,68,307,32,16,07,170,00*74
$GPRMC,182114,A,4005.9145,N,10510.0070,W,000.0,024.4,140413,008.7,E,D*07
$GPGSV,3,1,10,01,34,255,28,11,16,235,24,14,27,074,23,20,38,309,27*75
$GPGSV,3,2,10,22,11,137,17,23,15,279,26,25,18,046,21,31,75,055,26*7C
$GPGSV,3,3,10,32,68,307,32,16,07,170,00*74
$GPRMC,182115,A,4005.9145,N,10510.0070,W,000.0,024.4,140413,008.7,E,D*06
$GPGSV,3,1,10,01,34,255,29,11,16,235,24,14,27,074,24,20,39,309,28*7D
$GPGSV,3,2,10,22,11,137,18,23,15,279,26,25,18,046,21,31,75,055,27*72
$GPGSV,3,3,10,32,68,307,32,16,07,170,00*74
$GPRMC,182116,A,4005.9146,N,10510.0070,W,000.0,024.4,140413,008.7,E,D*06
$GPGSV,3,1,10,01,34,255,29,11,16,235,24,14,27,074,24,20,39,309,28*7D
$GPGSV,3,2,10,22,11,137,19,23,15,279,26,25,18,046,21,31,75,055,27*73
$GPGSV,3,3,10,32,68,307,32,16,07,170,00*74
$GPRMC,182117,A,4005.9146,N,10510.0070,W,000.0,024.4,140413,008.7,E,D*07
$GPGSV,3,1,10,01,34,255,28,11,16,235,24,14,27,074,24,20,39,309,28*7C
$GPGSV,3,2,10,22,11,137,19,23,15,279,26,25,18,046,21,31,75,055,27*73
$GPGSV,3,3,10,32,68,307,32,16,07,170,00*74
$GPRMC,182118,A,4005.9146,N,10510.0070,W,000.0,024.4,140413,008.7,E,D*08
$GPGSV,3,1,10,01,34,255,29,11,16,235,25,14,27,074,25,20,39,309,28*7D
$GPGSV,3,2,10,22,11,137,19,23,15,279,27,25,18,046,21,31,75,055,28*7D
$GPGSV,3,3,10,32,68,307,33,16,07,170,00*75
$GPRMC,182119,A,4005.9146,N,10510.0070,W,000.0,024.4,140413,008.7,E,D*09
$GPGSV,3,1,10,01,34,255,36,11,16,235,33,14,27,074,32,20,39,309,37*7C
$GPGSV,3,2,10,22,11,137,20,23,15,279,35,25,18,046,32,31,75,055,36*79
$GPGSV,3,3,10,32,68,307,40,16,07,170,00*71
$GPRMC,182120,A,4005.9146,N,10510.0070,W,000.0,024.4,140413,008.7,E,D*03
$GPGSV,3,1,10,01,34,255,38,11,16,235,42,14,27,074,39,20,39,309,39*71
$GPGSV,3,2,10,22,11,137,35,23,15,279,37,25,18,045,40,31,75,055,44*7C
$GPGSV,3,3,10,32,68,307,42,16,07,170,00*73
$GPRMC,182121,A,4005.9146,N,10510.0070,W,000.0,024.4,140413,008.7,E,D*02
$GPGSV,3,1,10,01,34,255,40,11,16,235,41,14,27,074,39,20,39,309,40*73
$GPGSV,3,2,10,22,11,137,35,23,15,279,39,25,18,045,40,31,75,055,44*72
$GPGSV,3,3,10,32,68,307,44,16,07,170,00*75
$GPRMC,182122,A,4005.9146,N,10510.0070,W,000.0,024.4,140413,008.7,E,D*01
$GPGSV,3,1,10,01,34,255,41,11,16,235,41,14,27,074,39,20,39,309,41*73
$GPGSV,3,2,10,22,11,137,34,23,15,279,40,25,18,045,40,31,75,055,44*7D
$GPGSV,3,3,10,32,68,307,45,16,07,170,00*74
$GPRMC,182123,A,4005.9146,N,10510.0070,W,000.0,024.4,140413,008.7,E,D*00
$GPGSV,3,1,10,01,34,255,42,11,16,235,41,14,27,074,39,20,39,309,42*73
$GPGSV,3,2,10,22,11,137,35,23,15,279,40,25,18,045,39,31,75,055,44*72
$GPGSV,3,3,10,32,68,307,46,16,07,170,00*77
$GPRMC,182124,A,4005.9146,N,10510.0070,W,000.0,024.4,140413,008.7,E,D*07
$GPGSV,3,1,10,01,34,255,43,11,16,235,41,14,27,074,40,20,39,309,43*7D
$GPGSV,3,2,10,22,11,137,35,23,15,279,41,25,18,045,38,31,75,055,44*72
$GPGSV,3,3,10,32,68,307,47,16,07,170,00*76
$GPRMC,182125,A,4005.9146,N,10510.0070,W,000.0,024.4,140413,008.7,E,D*06
$GPGSV,3,1,10,01,34,255,43,11,16,235,41,14,27,074,40,20,39,309,43*7D
$GPGSV,3,2,10,22,11,137,36,23,15,279,40,25,18,045,38,31,75,055,44*70
$GPGSV,3,3,10,32,68,307,47,16,07,170,00*76
$GPRMC,182126,A,4005.9146,N,10510.0070,W,000.0,024.4,140413,008.7,E,D*05
$GPGSV,3,1,10,01,34,255,43,11,16,235,41,14,27,074,40,20,39,309,42*7C
$GPGSV,3,2,10,22,11,137,34,23,15,279,40,25,18,045,37,31,75,054,43*7B
$GPGSV,3,3,10,32,68,307,47,16,07,170,00*76
$GPRMC,182127,A,4005.9146,N,10510.0070,W,000.0,024.4,140413,008.7,E,D*04
$GPGSV,3,1,10,01,34,255,43,11,16,235,41,14,27,074,40,20,39,309,42*7C
$GPGSV,3,2,10,22,11,137,33,23,15,279,40,25,18,045,37,31,75,054,43*7C
$GPGSV,3,3,10,32,68,306,47,16,07,170,00*77
$GPRMC,182128,A,4005.9146,N,10510.0070,W,000.0,024.4,140413,008.7,E,D*0B
$GPGSV,3,1,10,01,34,255,43,11,16,235,41,14,27,074,39,20,39,309,42*72
$GPGSV,3,2,10,22,11,137,35,23,15,279,40,25,18,045,36,31,75,054,43*7B
$GPGSV,3,3,10,32,68,306,47,16,07,170,00*77
$GPRMC,182129,A,4005.9146,N,10510.0070,W,000.0,024.4,140413,008.7,E,D*0A
$GPGSV,3,1,10,01,34,255,43,11,16,235,41,14,27,074,40,20,39,309,43*7D
$GPGSV,3,2,10,22,11,137,35,23,15,279,41,25,18,045,36,31,75,054,43*7A
$GPGSV,3,3,10,32,68,306,47,16,07,170,00*77
$GPRMC,182130,A,4005.9146,N,10510.0070,W,000.0,024.4,140413,008.7,E,D*02
$GPGSV,3,1,10,01,34,255,43,11,16,235,41,14,27,074,41,20,39,309,44*7B
$GPGSV,3,2,10,22,11,137,35,23,15,279,42,25,18,045,38,31,75,054,43*77
$GPGSV,3,3,10,32,68,306,48,16,07,170,00*78
$GPRMC,182131,A,4005.9146,N,10510.0070,W,000.0,024.4,140413,008.7,E,D*03
$GPGSV,3,1,10,01,34,255,42,11,16,235,40,14,27,074,40,20,39,309,42*7C
$GPGSV,3,2,10,22,11,137,31,23,15,279,41,25,18,045,37,31,75,054,42*7E
$GPGSV,3,3,10,32,68,306,47,16,07,170,00*77
$GPRMC,182132,A,4005.9146,N,10510.0070,W,000.0,024.4,140413,008.7,E,D*00
$GPGSV,3,1,10,01,34,255,40,11,16,235,39,14,27,074,39,20,39,309,41*7D
$GPGSV,3,2,10,22,11,137,30,23,15,279,39,25,18,045,36,31,75,054,35*71
$GPGSV,3,3,10,32,68,306,45,16,07,170,00*75
$GPRMC,182133,A,4005.9146,N,10510.0070,W,000.0,024.4,140413,008.7,E,D*01
$GPGSV,3,1,10,01,34,255,38,11,16,235,37,14,27,074,37,20,39,309,40*73
$GPGSV,3,2,10,22,11,137,25,23,15,279,37,25,18,045,28,31,75,054,34*75
$GPGSV,3,3,10,32,68,306,43,16,07,170,00*73
$GPRMC,182134,A,4005.9146,N,10510.0070,W,000.0,024.4,140413,008.7,E,D*06
$GPGSV,3,1,10,01,34,255,37,11,16,235,36,14,27,074,36,20,39,309,39*72
$GPGSV,3,2,10,22,11,137,27,23,15,279,36,25,18,045,29,31,75,054,34*77
$GPGSV,3,3,10,32,68,306,42,16,07,170,00*72
$GPRMC,182135,A,4005.9146,N,10510.0070,W,000.0,024.4,140413,008.7,E,D*07
$GPGSV,3,1,10,01,34,255,36,11,16,235,36,14,27,074,36,20,39,309,38*72
$GPGSV,3,2,10,22,11,137,27,23,15,279,36,25,18,045,30,31,75,054,34*7F
$GPGSV,3,3,10,32,68,306,42,16,07,170,00*72
$GPRMC,182136,A,4005.9146,N,10510.0070,W,000.0,024.4,140413,008.7,E,D*04
$GPGSV,3,1,10,01,34,255,35,11,16,235,35,14,27,074,35,20,39,309,37*7E
$GPGSV,3,2,10,22,11,137,26,23,15,279,35,25,18,045,29,31,75,054,34*75
$GPGSV,3,3,10,32,68,306,41,16,07,170,00*71
$GPRMC,182137,A,4005.9146,N,10510.0070,W,000.0,024.4,140413,008.7,E,D*05
$GPGSV,3,1,10,01,34,255,35,11,16,235,34,14,27,074,35,20,39,309,36*7E
$GPGSV,3,2,10,22,11,137,26,23,15,279,34,25,18,045,28,31,75,054,34*75
$GPGSV,3,3,10,32,68,306,40,16,07,170,00*70
$GPRMC,182138,A,4005.9146,N,10510.0070,W,000.0,024.4,140413,008.7,E,D*0A
$GPGSV,3,1,10,01,34,255,34,11,16,235,33,14,27,074,34,20,39,309,35*7A
$GPGSV,3,2,10,22,11,137,25,23,15,279,34,25,18,045,28,31,75,054,33*71
$GPGSV,3,3,10,32,68,306,39,16,07,170,00*7E
$GPRMC,182139,A,4005.9146,N,10510.0070,W,000.0,024.4,140413,008.7,E,D*0B
$GPGSV,3,1,10,01,34,255,33,11,16,235,33,14,27,074,34,20,39,309,35*7D
$GPGSV,3,2,10,22,11,137,24,23,15,279,33,25,18,045,28,31,75,054,32*76
$GPGSV,3,3,10,32,68,306,39,16,07,170,00*7E
$GPRMC,182140,A,4005.9146,N,10510.0070,W,000.0,024.4,140413,008.7,E,D*05
$GPGSV,3,1,10,01,34,255,33,11,16,235,33,14,27,074,34,20,39,309,35*7D
$GPGSV,3,2,10,22,11,137,24,23,15,279,33,25,18,045,27,31,75,054,32*79
$GPGSV,3,3,10,32,68,306,39,16,07,170,00*7E
$GPRMC,182141,A,4005.9146,N,10510.0070,W,000.0,024.4,140413,008.7,E,D*04
$GPGSV,3,1,10,01,34,255,33,11,16,235,33,14,27,075,35,20,39,309,35*7D
$GPGSV,3,2,10,22,11,137,23,23,15,279,33,25,18,045,28,31,75,054,32*71
$GPGSV,3,3,10,32,68,306,39,16,07,170,00*7E
$GPRMC,182142,A,4005.9146,N,10510.0070,W,000.0,024.4,140413,008.7,E,D*07
$GPGSV,3,1,10,01,34,255,33,11,16,235,33,14,27,075,35,20,39,309,35*7D
$GPGSV,3,2,10,22,11,137,24,23,15,279,34,25,18,045,28,31,75,054,32*71
$GPGSV,3,3,10,32,68,306,39,16,07,170,00*7E
$GPRMC,182143,A,4005.9146,N,10510.0070,W,000.0,024.4,140413,008.7,E,D*06
$GPGSV,3,1,10,01,34,255,33,11,16,235,33,14,27,075,35,20,39,309,35*7D
$GPGSV,3,2,10,22,11,137,24,23,15,279,34,25,18,045,28,31,75,054,32*71
$GPGSV,3,3,10,32,68,306,39,16,07,170,00*7E
$GPRMC,182144,A,4005.9146,N,10510.0070,W,000.0,024.4,140413,008.7,E,D*01
$GPGSV,3,1,10,01,34,255,32,11,16,235,32,14,27,075,34,20,39,309,35*7C
$GPGSV,3,2,10,22,11,137,24,23,15,279,34,25,18,045,28,31,75,054,32*71
$GPGSV,3,3,10,32,68,306,39,16,07,170,00*7E
$GPRMC,182145,A,4005.9146,N,10510.0070,W,000.0,024.4,140413,008.7,E,D*00
$GPGSV,3,1,10,01,34,255,31,11,16,235,31,14,27,075,34,20,39,309,34*7D
$GPGSV,3,2,10,22,11,137,23,23,15,279,33,25,18,045,28,31,75,054,31*72
$GPGSV,3,3,10,32,68,306,39,16,07,170,00*7E
$GPRMC,182146,A,4005.9146,N,10510.0070,W,000.0,024.4,140413,008.7,E,D*03
$GPGSV,3,1,10,01,34,255,38,11,16,235,39,14,27,075,35,20,39,309,36*7F
$GPGSV,3,2,10,22,11,137,23,23,15,279,35,25,18,045,30,31,75,054,33*7F
$GPGSV,3,3,10,32,68,306,40,16,07,170,00*70
$GPRMC,182147,A,4005.9146,N,10510.0070,W,000.0,024.4,140413,008.7,E,D*02
$GPGSV,3,1,10,01,34,255,37,11,16,235,39,14,27,075,35,20,39,308,37*70
$GPGSV,3,2,10,22,11,137,23,23,15,279,36,25,18,045,31,31,75,054,34*7A
$GPGSV,3,3,10,32,68,306,41,16,07,170,00*71
$GPRMC,182148,A,4005.9146,N,10510.0070,W,000.0,024.4,140413,008.7,E,D*0D
$GPGSV,3,1,10,01,34,255,36,11,16,235,39,14,27,075,35,20,39,308,37*71
$GPGSV,3,2,10,22,11,137,23,23,15,279,36,25,18,045,32,31,75,054,34*79
$GPGSV,3,3,10,32,68,306,41,16,07,170,00*71
$GPRMC,182149,A,4005.9146,N,10510.0070,W,000.0,024.4,140413,008.7,E,D*0C
$GPGSV,3,1,10,01,34,255,37,11,16,235,40,14,27,075,36,20,39,308,38*72
$GPGSV,3,2,10,22,11,138,24,23,15,279,37,25,18,045,33,31,75,054,35*70
$GPGSV,3,3,10,32,68,306,42,16,07,170,00*72
$GPRMC,182150,A,4005.9146,N,10510.0070,W,000.0,024.4,140413,008.7,E,D*04
$GPGSV,3,1,10,01,34,255,37,11,16,235,40,14,27,075,37,20,39,308,38*73
$GPGSV,3,2,10,22,11,138,15,23,15,279,38,25,18,045,34,31,75,054,35*7A
$GPGSV,3,3,10,32,68,306,42,16,07,170,00*72
$GPRMC,182151,A,4005.9146,N,10510.0070,W,000.0,024.4,140413,008.7,E,D*05
$GPGSV,3,1,10,01,34,255,37,11,16,235,40,14,27,075,38,20,39,308,38*7C
$GPGSV,3,2,10,22,11,138,17,23,15,279,38,25,18,045,34,31,75,054,36*7B
$GPGSV,3,3,10,32,68,306,43,16,07,170,00*73
$GPRMC,182152,A,4005.9146,N,10510.0070,W,000.0,024.4,140413,008.7,E,D*06
$GPGSV,3,1,10,01,34,255,37,11,16,235,40,14,27,075,38,20,39,308,38*7C
$GPGSV,3,2,10,22,11,138,17,23,15,279,38,25,18,045,35,31,75,054,36*7A
$GPGSV,3,3,10,32,68,306,43,16,07,170,00*73
$GPRMC,182153,A,4005.9146,N,10510.0070,W,000.0,024.4,140413,008.7,E,D*07
$GPGSV,3,1,10,01,34,255,37,11,16,235,40,14,27,075,38,20,39,308,39*7D
$GPGSV,3,2,10,22,11,138,19,23,15,279,38,25,18,045,35,31,75,054,36*74
$GPGSV,3,3,10,32,68,306,43,16,07,170,00*73
$GPRMC,182154,A,4005.9146,N,10510.0070,W,000.0,024.4,140413,008.7,E,D*00
$GPGSV,3,1,10,01,34,255,37,11,16,235,40,14,27,075,38,20,39,308,39*7D
$GPGSV,3,2,10,22,11,138,21,23,15,279,39,25,18,045,35,31,75,054,36*7E
$GPGSV,3,3,10,32,68,306,43,16,07,170,00*73
$GPRMC,182155,A,4005.9146,N,10510.0070,W,000.0,024.4,140413,008.7,E,D*01
$GPGSV,3,1,10,01,34,255,37,11,16,235,40,14,27,075,38,16,08,170,20*7F
$GPGSV,3,2,10,20,39,308,39,22,11,138,21,23,15,279,39,25,18,045,35*73
$GPGSV,3,3,10,31,75,054,37,32,68,306,44*77
$GPRMC,182156,A,4005.9146,N,10510.0070,W,000.0,024.4,140413,008.7,E,D*02
$GPGSV,3,1,10,01,34,255,37,11,16,235,40,14,27,075,38,16,08,170,21*7E
$GPGSV,3,2,10,20,39,308,39,22,11,138,21,23,15,279,39,25,18,045,35*73
$GPGSV,3,3,10,31,75,054,37,32,68,306,44*77
$GPRMC,182157,A,4005.9146,N,10510.0070,W,000.0,024.4,140413,008.7,E,D*03
$GPGSV,3,1,10,01,34,255,38,11,16,235,40,14,27,075,38,16,08,170,17*74
$GPGSV,3,2,10,20,39,308,39,22,11,138,21,23,15,279,39,25,18,045,35*73
$GPGSV,3,3,10,31,75,054,37,32,68,306,44*77
$GPRMC,182158,A,4005.9146,N,10510.0070,W,000.0,024.4,140413,008.7,E,D*0C
$GPGSV,3,1,10,01,34,255,38,11,16,235,40,14,27,075,38,16,08,170,19*7A
$GPGSV,3,2,10,20,39,308,39,22,11,138,20,23,15,279,39,25,18,045,35*72
$GPGSV,3,3,10,31,75,054,37,32,68,306,44*77
$GPRMC,182159,A,4005.9146,N,10510.0070,W,000.0,024.4,140413,008.7,E,D*0D
$GPGSV,3,1,10,01,34,255,38,11,16,235,40,14,27,075,38,16,08,170,15*76
$GPGSV,3,2,10,20,39,308,39,22,11,138,12,23,15,279,39,25,18,045,35*73
$GPGSV,3,3,10,31,75,054,37,32,69,306,44*76
$GPRMC,182200,A,4005.9146,N,10510.0070,W,000.0,024.4,140413,008.7,E,D*02
$GPGSV,3,1,10,01,34,255,38,11,16,235,40,14,27,075,38,16,08,170,15*76
$GPGSV,3,2,10,20,39,308,39,23,15,279,39,25,18,045,35,31,75,054,37*7F
$GPGSV,3,3,10,32,69,306,44,22,12,137,00*75
$GPRMC,182201,A,4005.9146,N,10510.0070,W,000.0,024.4,140413,008.7,E,D*03
$GPGSV,3,1,10,01,34,255,38,11,16,235,40,14,27,075,38,16,08,170,16*75
$GPGSV,3,2,10,20,39,308,39,23,15,279,39,25,18,045,36,31,75,054,36*7D
$GPGSV,3,3,10,32,69,306,44,22,12,137,00*75
$GPRMC,182202,A,4005.9146,N,10510.0070,W,000.0,024.4,140413,008.7,E,D*00
$GPGSV,3,1,10,01,34,255,38,11,16,235,40,14,27,075,38,20,39,308,39*72
$GPGSV,3,2,10,23,15,279,39,25,18,045,36,31,75,054,36,32,69,306,44*7F
$GPGSV,3,3,10,16,07,170,00,22,12,137,00*78
$GPRMC,182203,A,4005.9146,N,10510.0070,W,000.0,024.4,140413,008.7,E,D*01
$GPGSV,3,1,10,01,34,255,38,11,16,235,40,14,27,075,38,20,39,308,39*72
$GPGSV,3,2,10,23,15,279,39,25,18,045,36,31,75,054,36,32,69,306,44*7F
$GPGSV,3,3,10,16,07,170,00,22,12,137,00*78
$GPRMC,182204,A,4005.9146,N,10510.0070,W,000.0,024.4,140413,008.7,E,D*06
$GPGSV,3,1,10,01,34,255,38,11,16,235,40,14,27,075,38,20,39,308,39*72
$GPGSV,3,2,10,23,15,279,39,25,18,045,36,31,75,054,36,32,69,306,44*7F
$GPGSV,3,3,10,16,07,170,00,22,12,137,00*78
$GPRMC,182205,A,4005.9146,N,10510.0070,W,000.0,024.4,140413,008.7,E,D*07
$GPGSV,3,1,10,01,34,255,39,11,16,235,40,14,27,075,38,20,39,308,39*73
$GPGSV,3,2,10,23,15,279,39,25,18,045,36,31,75,054,36,32,69,306,44*7F
$GPGSV,3,3,10,16,07,170,00,22,12,137,00*78
$GPRMC,182206,A,4005.9146,N,10510.0070,W,000.0,024.4,140413,008.7,E,D*04
$GPGSV,3,1,10,01,34,255,39,11,16,235,40,14,27,075,38,20,39,308,39*73
$GPGSV,3,2,10,22,11,138,25,23,15,279,39,25,18,045,36,31,75,054,36*79
$GPGSV,3,3,10,32,69,306,43,16,07,170,00*72
$GPRMC,182207,A,4005.9146,N,10510.0070,W,000.0,024.4,140413,008.7,E,D*05
$GPGSV,3,1,10,01,34,255,39,11,16,235,40,14,27,075,38,20,39,308,39*73
