$GPRMC,181815,A,4005.9140,N,10510.0066,W,000.0,024.4,140413,008.7,E,D*0E
$GPGSV,3,1,10,01,35,257,39,11,17,236,36,14,29,073,34,16,06,171,21*7B
$GPGSV,3,2,10,20,37,309,39,22,13,137,31,23,14,278,35,25,18,047,29*73
$GPGSV,3,3,10,31,76,057,32,32,67,308,40*77
$GPRMC,181816,A,4005.9140,N,10510.0066,W,000.0,024.4,140413,008.7,E,D*0D
$GPGSV,3,1,10,01,35,257,39,11,17,236,36,14,29,073,34,16,06,171,21*7B
$GPGSV,3,2,10,20,37,309,39,22,13,137,31,23,14,278,36,25,18,047,29*70
$GPGSV,3,3,10,31,76,057,32,32,67,308,40*77
$GPRMC,181817,A,4005.9140,N,10510.0066,W,000.0,024.4,140413,008.7,E,D*0C
$GPGSV,3,1,10,01,35,257,39,11,17,236,36,14,29,073,33,16,06,171,21*7C
$GPGSV,3,2,10,20,37,309,39,22,13,137,31,23,14,278,36,25,18,047,29*70
$GPGSV,3,3,10,31,76,057,32,32,67,308,40*77
$GPRMC,181818,A,4005.9140,N,10510.0066,W,000.0,024.4,140413,008.7,E,D*03
$GPGSV,3,1,10,01,35,257,39,11,17,236,36,14,29,073,33,16,06,171,20*7D
$GPGSV,3,2,10,20,37,309,39,22,13,137,31,23,14,278,36,25,18,047,28*71
$GPGSV,3,3,10,31,76,057,32,32,67,308,39*79
$GPRMC,181819,A,4005.9140,N,10510.0066,W,000.0,024.4,140413,008.7,E,D*02
$GPGSV,3,1,10,01,35,257,39,11,17,236,36,14,29,073,33,16,06,171,20*7D
$GPGSV,3,2,10,20,37,309,39,22,13,137,31,23,14,278,36,25,18,047,27*7E
$GPGSV,3,3,10,31,76,057,32,32,67,308,39*79
$GPRMC,181820,A,4005.9140,N,10510.0066,W,000.0,024.4,140413,008.7,E,D*08
$GPGSV,3,1,10,01,35,257,39,11,17,236,36,14,29,073,33,16,06,171,20*7D
$GPGSV,3,2,10,20,37,309,39,22,13,137,32,23,14,278,36,25,18,047,27*7D
$GPGSV,3,3,10,31,76,057,32,32,67,308,39*79
$GPRMC,181821,A,4005.9140,N,10510.0066,W,000.0,024.4,140413,008.7,E,D*09
$GPGSV,3,1,10,01,35,257,39,11,17,236,36,14,29,073,32,16,06,171,20*7C
$GPGSV,3,2,10,20,37,309,39,22,13,137,32,23,14,278,36,25,18,047,26*7C
$GPGSV,3,3,10,31,76,057,32,32,67,308,39*79
$GPRMC,181822,A,4005.9140,N,10510.0066,W,000.0,024.4,140413,008.7,E,D*0A
$GPGSV,3,1,10,01,35,257,39,11,17,236,36,14,29,073,33,16,06,171,20*7D
$GPGSV,3,2,10,20,37,309,39,22,13,137,32,23,14,278,36,25,18,047,25*7F
$GPGSV,3,3,10,31,76,057,32,32,67,308,39*79
$GPRMC,181823,A,4005.9140,N,10510.0066,W,000.0,024.4,140413,008.7,E,D*0B
$GPGSV,3,1,10,01,35,257,39,11,17,236,36,14,29,073,33,16,06,171,19*77
$GPGSV,3,2,10,20,37,309,39,22,13,137,32,23,14,278,36,25,18,047,26*7C
$GPGSV,3,3,10,31,76,057,32,32,67,308,39*79
$GPRMC,181824,A,4005.9140,N,10510.0066,W,000.0,024.4,140413,008.7,E,D*0C
$GPGSV,3,1,10,01,35,257,39,11,17,236,36,14,29,073,33,16,06,171,19*77
$GPGSV,3,2,10,20,37,309,39,22,13,137,32,23,14,278,36,25,18,047,25*7F
$GPGSV,3,3,10,31,76,057,33,32,67,308,39*78
$GPRMC,181825,A,4005.9140,N,10510.0066,W,000.0,024.4,140413,008.7,E,D*0D
$GPGSV,3,1,10,01,35,257,39,11,17,236,36,14,29,073,33,16,06,171,19*77
$GPGSV,3,2,10,20,37,309,39,22,13,137,32,23,14,278,36,25,18,047,25*7F
$GPGSV,3,3,10,31,76,057,33,32,67,308,39*78
$GPRMC,181826,A,4005.9140,N,10510.0066,W,000.0,024.4,140413,008.7,E,D*0E
$GPGSV,3,1,10,01,35,257,39,11,17,236,36,14,29,073,32,16,06,171,19*76
$GPGSV,3,2,10,20,37,309,39,22,13,137,32,23,14,278,36,25,18,047,25*7F
$GPGSV,3,3,10,31,76,057,33,32,67,308,39*78
$GPRMC,181827,A,4005.9141,N,10510.0066,W,000.0,024.4,140413,008.7,E,D*0E
$GPGSV,3,1,10,01,35,257,39,11,17,236,36,14,29,073,32,16,06,171,19*76
$GPGSV,3,2,10,20,37,309,39,22,13,137,32,23,14,278,36,25,18,047,25*7F
$GPGSV,3,3,10,31,76,057,33,32,67,308,39*78
$GPRMC,181828,A,4005.9141,N,10510.0066,W,000.0,024.4,140413,008.7,E,D*01
$GPGSV,3,1,10,01,35,257,39,11,17,236,36,14,29,073,32,16,06,171,19*76
$GPGSV,3,2,10,20,37,309,39,22,13,137,32,23,14,278,36,25,18,047,26*7C
$GPGSV,3,3,10,31,76,057,33,32,67,308,39*78
$GPRMC,181829,A,4005.9141,N,10510.0066,W,000.0,024.4,140413,008.7,E,D*00
$GPGSV,3,1,10,01,35,257,39,11,17,236,36,14,28,074,32,16,06,171,18*71
$GPGSV,3,2,10,20,37,309,39,22,13,137,32,23,14,278,36,25,18,047,26*7C
$GPGSV,3,3,10,31,76,057,33,32,67,308,39*78
$GPRMC,181830,A,4005.9141,N,10510.0066,W,000.0,024.4,140413,008.7,E,D*08
$GPGSV,3,1,10,01,35,257,39,11,17,236,36,14,28,074,32,16,06,171,18*71
$GPGSV,3,2,10,20,37,309,39,22,13,137,32,23,14,278,36,25,18,047,27*7D
$GPGSV,3,3,10,31,76,057,33,32,67,308,39*78
$GPRMC,181831,A,4005.9141,N,10510.0066,W,000.0,024.4,140413,008.7,E,D*09
$GPGSV,3,1,10,01,35,257,39,11,17,236,36,14,28,074,33,16,07,170,19*71
$GPGSV,3,2,10,20,37,309,39,22,13,137,33,23,14,278,36,25,18,047,28*73
$GPGSV,3,3,10,31,76,057,33,32,67,308,39*78
$GPRMC,181832,A,4005.9141,N,10510.0066,W,000.0,024.4,140413,008.7,E,D*0A
$GPGSV,3,1,10,01,35,257,39,11,17,236,36,14,28,074,33,16,07,170,20*7B
$GPGSV,3,2,10,20,37,309,39,22,13,137,33,23,14,278,36,25,18,047,29*72
$GPGSV,3,3,10,31,76,057,33,32,67,308,39*78
$GPRMC,181833,A,4005.9141,N,10510.0066,W,000.0,024.4,140413,008.7,E,D*0B
$GPGSV,3,1,10,01,35,257,38,11,17,236,36,14,28,074,32,16,07,170,21*7A
$GPGSV,3,2,10,20,37,309,39,22,13,137,33,23,14,278,36,25,18,047,29*72
$GPGSV,3,3,10,31,76,057,33,32,67,308,39*78
$GPRMC,181834,A,4005.9141,N,10510.0066,W,000.0,024.4,140413,008.7,E,D*0C
$GPGSV,3,1,10,01,35,257,38,11,17,236,36,14,28,074,32,16,07,170,21*7A
$GPGSV,3,2,10,20,37,309,39,22,13,137,33,23,14,278,36,25,18,047,29*72
$GPGSV,3,3,10,31,76,057,33,32,67,308,39*78
$GPRMC,181835,A,4005.9141,N,10510.0066,W,000.0,024.4,140413,008.7,E,D*0D
$GPGSV,3,1,10,01,35,257,38,11,17,236,36,14,28,074,32,16,07,170,21*7A
$GPGSV,3,2,10,20,38,309,39,22,13,137,33,23,14,278,36,25,18,047,29*7D
$GPGSV,3,3,10,31,76,057,33,32,67,308,40*76
$GPRMC,181836,A,4005.9141,N,10510.0066,W,000.0,024.4,140413,008.7,E,D*0E
$GPGSV,3,1,10,01,35,257,38,11,17,236,36,14,28,074,32,16,07,170,21*7A
$GPGSV,3,2,10,20,38,309,39,22,13,137,33,23,14,278,36,25,18,047,29*7D
$GPGSV,3,3,10,31,76,057,33,32,67,308,40*76
$GPRMC,181837,A,4005.9141,N,10510.0066,W,000.0,024.4,140413,008.7,E,D*0F
$GPGSV,3,1,10,01,35,257,38,11,17,236,36,14,28,074,32,16,07,170,21*7A
$GPGSV,3,2,10,20,38,309,39,22,12,137,34,23,14,278,36,25,18,047,28*7A
$GPGSV,3,3,10,31,76,057,32,32,67,308,40*77
$GPRMC,181838,A,4005.9141,N,10510.0066,W,000.0,024.4,140413,008.7,E,D*00
$GPGSV,3,1,10,01,35,257,38,11,17,236,36,14,28,074,31,16,07,170,21*79
$GPGSV,3,2,10,20,38,309,39,22,12,137,34,23,14,278,36,25,18,047,28*7A
$GPGSV,3,3,10,31,76,057,32,32,67,308,40*77
$GPRMC,181839,A,4005.9141,N,10510.0066,W,000.0,024.4,140413,008.7,E,D*01
$GPGSV,3,1,10,01,35,257,38,11,17,236,36,14,28,074,31,16,07,170,21*79
$GPGSV,3,2,10,20,38,309,39,22,12,137,34,23,14,278,36,25,18,047,28*7A
$GPGSV,3,3,10,31,76,057,32,32,67,308,40*77
$GPRMC,202830,A,4005.9162,N,10510.0054,W,000.0,024.4,140413,008.7,E,D*00
$GPGSV,3,1,11,06,10,132,25,13,34,306,31,16,63,131,40,20,53,223,37*7F
$GPGSV,3,2,11,23,60,318,35,31,22,058,28,32,43,182,31,03,06,151,00*79
$GPGSV,3,3,11,04,04,307,00,07,08,252,00,29,03,036,00*4A
$GPRMC,202831,A,4005.9162,N,10510.0054,W,000.0,024.4,140413,008.7,E,D*01
$GPGSV,3,1,11,06,10,132,25,13,34,306,31,16,63,131,40,20,53,223,37*7F
$GPGSV,3,2,11,23,60,318,35,31,22,058,29,32,43,182,31,03,06,151,00*78
$GPGSV,3,3,11,04,04,307,00,07,08,252,00,29,03,036,00*4A
$GPRMC,202832,A,4005.9162,N,10510.0054,W,000.0,024.4,140413,008.7,E,D*02
$GPGSV,3,1,11,06,10,132,26,13,34,306,31,16,63,131,40,20,53,223,37*7C
$GPGSV,3,2,11,23,60,318,35,31,22,058,29,32,43,182,30,03,06,151,00*79
$GPGSV,3,3,11,04,04,307,00,07,08,252,00,29,03,036,00*4A
$GPRMC,202833,A,4005.9162,N,10510.0054,W,000.0,024.4,140413,008.7,E,D*03
$GPGSV,3,1,11,06,10,132,26,13,34,306,31,16,63,131,40,20,53,223,37*7C
$GPGSV,3,2,11,23,60,318,35,31,22,058,29,32,43,182,30,03,06,151,00*79
$GPGSV,3,3,11,04,04,307,00,07,08,252,00,29,03,036,00*4A
$GPRMC,202834,A,4005.9162,N,10510.0054,W,000.0,024.4,140413,008.7,E,D*04
$GPGSV,3,1,11,06,10,132,26,13,34,306,31,16,63,131,40,20,53,223,37*7C
$GPGSV,3,2,11,23,60,318,35,31,22,058,29,32,43,182,30,03,06,151,00*79
$GPGSV,3,3,11,04,04,307,00,07,08,252,00,29,03,036,00*4A
$GPRMC,202835,A,4005.9162,N,10510.0054,W,000.0,024.4,140413,008.7,E,D*05
$GPGSV,3,1,11,06,10,132,26,13,34,306,31,16,63,131,40,20,53,223,37*7C
$GPGSV,3,2,11,23,60,318,35,31,22,058,29,32,43,182,29,03,06,151,00*71
$GPGSV,3,3,11,04,04,307,00,07,08,252,00,29,03,036,00*4A
$GPRMC,202836,A,4005.9162,N,10510.0054,W,000.0,024.4,140413,008.7,E,D*06
$GPGSV,3,1,11,06,10,132,25,13,34,306,31,16,63,131,40,20,53,223,37*7F
$GPGSV,3,2,11,23,60,318,35,31,22,058,29,32,43,182,29,03,06,151,00*71
$GPGSV,3,3,11,04,04,307,00,07,08,252,00,29,03,036,00*4A
$GPRMC,202837,A,4005.9162,N,10510.0054,W,000.0,024.4,140413,008.7,E,D*07
$GPGSV,3,1,11,06,10,132,24,13,34,306,31,16,63,131,40,20,53,223,37*7E
$GPGSV,3,2,11,23,60,318,35,31,22,058,29,32,43,182,29,03,06,151,00*71
$GPGSV,3,3,11,04,04,307,00,07,08,252,00,29,03,036,00*4A
$GPRMC,202838,A,4005.9162,N,10510.0054,W,000.0,024.4,140413,008.7,E,D*08
$GPGSV,3,1,11,06,10,132,24,13,34,306,31,16,63,131,40,20,53,223,37*7E
$GPGSV,3,2,11,23,60,318,35,31,22,058,30,32,43,182,29,03,06,151,00*79
$GPGSV,3,3,11,04,04,307,00,07,08,252,00,29,03,036,00*4A
$GPRMC,202839,A,4005.9162,N,10510.0054,W,000.0,024.4,140413,008.7,E,D*09
$GPGSV,3,1,11,06,10,132,23,13,34,306,31,16,63,131,40,20,53,223,37*79
$GPGSV,3,2,11,23,60,318,35,31,22,058,30,32,43,182,29,03,06,151,00*79
$GPGSV,3,3,11,04,04,307,00,07,08,252,00,29,03,036,00*4A
$GPRMC,202840,A,4005.9162,N,10510.0054,W,000.0,024.4,140413,008.7,E,D*07
$GPGSV,3,1,11,06,10,132,24,13,34,306,31,16,63,131,40,20,53,223,37*7E
$GPGSV,3,2,11,23,60,318,35,31,22,058,30,32,43,182,28,03,06,151,00*78
$GPGSV,3,3,11,04,04,307,00,07,08,252,00,29,03,036,00*4A
$GPRMC,202841,A,4005.9162,N,10510.0054,W,000.0,024.4,140413,008.7,E,D*06
$GPGSV,3,1,11,06,10,132,24,13,34,306,31,16,63,131,40,20,53,223,37*7E
$GPGSV,3,2,11,23,60,318,35,31,22,058,31,32,43,182,28,03,06,151,00*79
$GPGSV,3,3,11,04,04,307,00,07,08,252,00,29,02,035,00*48
$GPRMC,202842,A,4005.9162,N,10510.0054,W,000.0,024.4,140413,008.7,E,D*05
$GPGSV,3,1,11,06,10,132,24,13,34,306,31,16,63,131,40,20,53,223,37*7E
$GPGSV,3,2,11,23,60,318,35,31,22,058,31,32,43,182,29,03,06,151,00*78
$GPGSV,3,3,11,04,04,307,00,07,08,252,00,29,02,035,00*48
$GPRMC,202843,A,4005.9162,N,10510.0054,W,000.0,024.4,140413,008.7,E,D*04
$GPGSV,3,1,11,06,10,132,24,13,34,306,32,16,63,131,40,20,53,223,37*7D
$GPGSV,3,2,11,23,60,318,35,31,22,058,31,32,43,182,29,03,06,151,00*78
$GPGSV,3,3,11,04,04,307,00,07,08,252,00,29,02,035,00*48
$GPRMC,202844,A,4005.9162,N,10510.0054,W,000.0,024.4,140413,008.7,E,D*03
$GPGSV,3,1,11,06,10,132,25,13,34,306,32,16,63,131,40,20,53,223,37*7C
$GPGSV,3,2,11,23,60,318,35,31,22,058,31,32,43,182,28,03,06,151,00*79
$GPGSV,3,3,11,04,04,307,00,07,08,252,00,29,02,035,00*48
$GPRMC,202845,A,4005.9162,N,10510.0054,W,000.0,024.4,140413,008.7,E,D*02
$GPGSV,3,1,11,06,10,132,25,13,34,306,33,16,63,131,40,20,53,223,37*7D
$GPGSV,3,2,11,23,60,318,35,31,22,058,31,32,43,182,27,03,06,151,00*76
$GPGSV,3,3,11,04,04,307,00,07,08,252,00,29,02,035,00*48
$GPRMC,202846,A,4005.9162,N,10510.0054,W,000.0,024.4,140413,008.7,E,D*01
$GPGSV,3,1,11,06,10,132,25,13,34,306,33,16,63,131,40,20,53,223,37*7D
$GPGSV,3,2,11,23,60,318,35,31,22,058,31,32,43,182,26,03,06,151,00*77
$GPGSV,3,3,11,04,04,307,00,07,08,252,00,29,02,035,00*48
$GPRMC,202847,A,4005.9162,N,10510.0054,W,000.0,024.4,140413,008.7,E,D*00
$GPGSV,3,1,11,06,10,132,26,13,34,306,33,16,63,131,40,20,53,223,37*7E
$GPGSV,3,2,11,23,60,318,35,31,22,058,31,32,43,182,25,03,06,151,00*74
$GPGSV,3,3,11,04,04,307,00,07,08,252,00,29,02,035,00*48
$GPRMC,202848,A,4005.9162,N,10510.0054,W,000.0,024.4,140413,008.7,E,D*0F
$GPGSV,3,1,11,06,10,132,26,13,34,306,33,16,63,131,40,20,53,223,37*7E
$GPGSV,3,2,11,23,60,318,35,31,22,058,31,32,43,182,25,03,06,151,00*74
$GPGSV,3,3,11,04,04,307,00,07,08,252,00,29,02,035,00*48
$GPRMC,202849,A,4005.9162,N,10510.0054,W,000.0,024.4,140413,008.7,E,D*0E
$GPGSV,3,1,11,06,10,132,26,13,34,306,32,16,63,131,40,20,53,223,37*7F
$GPGSV,3,2,11,23,60,318,35,31,22,058,31,32,43,182,24,03,06,151,00*75
$GPGSV,3,3,11,04,04,307,00,07,08,252,00,29,02,035,00*48
$GPRMC,202850,A,4005.9162,N,10510.0054,W,000.0,024.4,140413,008.7,E,D*06
$GPGSV,3,1,11,06,10,132,26,13,34,306,32,16,63,131,40,20,53,223,37*7F
$GPGSV,3,2,11,23,60,318,34,31,22,058,30,32,43,182,24,03,06,151,00*75
$GPGSV,3,3,11,04,04,307,00,07,08,252,00,29,02,035,00*48
$GPRMC,202851,A,4005.9162,N,10510.0054,W,000.0,024.4,140413,008.7,E,D*07
$GPGSV,3,1,11,06,10,132,25,13,34,306,32,16,63,131,40,20,53,223,37*7C
$GPGSV,3,2,11,23,60,318,34,31,22,058,30,32,43,182,24,03,06,151,00*75
$GPGSV,3,3,11,04,04,307,00,07,08,252,00,29,02,035,00*48
$GPRMC,202852,A,4005.9162,N,10510.0054,W,000.0,024.4,140413,008.7,E,D*04
$GPGSV,3,1,11,06,10,132,25,13,34,306,32,16,63,131,40,20,53,223,37*7C
$GPGSV,3,2,11,23,60,318,34,31,22,058,29,32,43,182,24,03,06,151,00*7D
$GPGSV,3,3,11,04,04,307,00,07,08,252,00,29,02,035,00*48
$GPRMC,202853,A,4005.9162,N,10510.0054,W,000.0,024.4,140413,008.7,E,D*05
$GPGSV,3,1,11,06,10,132,25,13,34,306,32,16,63,131,40,20,53,223,37*7C
$GPGSV,3,2,11,23,60,318,34,31,22,058,29,32,43,182,24,03,06,151,00*7D
$GPGSV,3,3,11,04,04,307,00,07,08,252,00,29,02,035,00*48
$GPRMC,202854,A,4005.9162,N,10510.0054,W,000.0,024.4,140413,008.7,E,D*02
$GPGSV,3,1,11,06,10,132,25,13,34,306,32,16,63,131,40,20,53,223,37*7C
$GPGSV,3,2,11,23,60,318,34,31,22,059,29,32,43,182,24,03,06,151,00*7C
$GPGSV,3,3,11,04,04,307,00,07,08,252,00,29,02,035,00*48
$GPRMC,192421,A,4005.9167,N,10510.0063,W,000.0,024.4,140413,008.7,E,D*07
$GPGSV,2,1,08,01,16,230,41,13,12,288,37,14,08,095,27,16,35,159,39*75
$GPGSV,2,2,08,20,60,281,44,23,35,298,40,31,47,046,38,32,74,202,38*7F
$GPRMC,192422,A,4005.9167,N,10510.0063,W,000.0,024.4,140413,008.7,E,D*04
$GPGSV,2,1,08,01,16,230,41,13,12,288,37,14,08,095,27,16,35,159,39*75
$GPGSV,2,2,08,20,60,281,44,23,35,298,40,31,47,046,38,32,74,202,38*7F
$GPRMC,192423,A,4005.9167,N,10510.0063,W,000.0,024.4,140413,008.7,E,D*05
$GPGSV,2,1,08,01,16,230,41,13,12,288,37,14,08,095,28,16,35,159,39*7A
$GPGSV,2,2,08,20,60,281,44,23,35,298,40,31,47,046,38,32,74,202,39*7E
$GPRMC,192421,A,4005.9167,N,10510.0063,W,000.0,024.4,140413,008.7,E,D*07
$GPGSV,2,1,08,01,16,230,41,13,12,288,37,14,08,095,27,16,35,159,39*75
$GPGSV,2,2,08,20,60,281,44,23,35,298,40,31,47,046,38,32,74,202,38*7F
$GPRMC,192422,A,4005.9167,N,10510.0063,W,000.0,024.4,140413,008.7,E,D*04
$GPGSV,2,1,08,01,16,230,41,13,12,288,37,14,08,095,27,16,35,159,39*75
$GPGSV,2,2,08,20,60,281,44,23,35,298,40,31,47,046,38,32,74,202,38*7F
$GPRMC,192423,A,4005.9167,N,10510.0063,W,000.0,024.4,140413,008.7,E,D*05
$GPGSV,2,1,08,01,16,230,41,13,12,288,37,14,08,095,28,16,35,159,39*7A
$GPGSV,2,2,08,20,60,281,44,23,35,298,40,31,47,046,38,32,74,202,39*7E

