$GPRMC,181814,A,4005.9132,N,10510.0068,W,000.0,237.9,140413,008.7,E,D*09
$GPGSV,3,1,10,01,35,257,29,11,17,236,33,14,28,073,27,20,37,309,33*75
$GPGSV,3,2,10,22,13,137,25,23,14,278,29,25,18,047,28,31,76,058,27*77
$GPGSV,3,3,10,32,67,308,34,16,06,170,00*73
$GPRMC,181815,A,4005.9132,N,10510.0068,W,000.0,237.9,140413,008.7,E,D*08
$GPGSV,3,1,10,01,35,257,28,11,17,236,33,14,28,073,27,20,37,309,33*74
$GPGSV,3,2,10,22,13,137,25,23,14,278,29,25,18,047,28,31,76,058,27*77
$GPGSV,3,3,10,32,67,308,34,16,06,170,00*73
$GPRMC,181816,A,4005.9132,N,10510.0068,W,000.0,237.9,140413,008.7,E,D*0B
$GPGSV,3,1,10,01,35,257,28,11,17,236,33,14,28,073,27,20,37,309,33*74
$GPGSV,3,2,10,22,13,137,25,23,14,278,28,25,18,047,28,31,76,058,27*76
$GPGSV,3,3,10,32,67,308,34,16,06,170,00*73
$GPRMC,181817,A,4005.9132,N,10510.0068,W,000.0,237.9,140413,008.7,E,D*0A
$GPGSV,3,1,10,01,35,257,28,11,17,236,33,14,28,073,27,20,37,309,33*74
$GPGSV,3,2,10,22,13,137,25,23,14,278,28,25,18,047,28,31,76,058,27*76
$GPGSV,3,3,10,32,67,308,34,16,06,170,00*73
$GPRMC,181818,A,4005.9132,N,10510.0068,W,000.0,237.9,140413,008.7,E,D*05
$GPGSV,3,1,10,01,35,257,28,11,17,236,33,14,28,073,27,20,37,309,33*74
$GPGSV,3,2,10,22,13,137,25,23,14,278,28,25,18,047,28,31,76,058,27*76
$GPGSV,3,3,10,32,67,308,34,16,06,170,00*73
$GPRMC,181819,A,4005.9132,N,10510.0068,W,000.0,237.9,140413,008.7,E,D*04
$GPGSV,3,1,10,01,35,257,28,11,17,236,33,14,28,073,27,20,37,309,33*74
$GPGSV,3,2,10,22,12,137,25,23,14,278,29,25,18,047,28,31,76,058,27*76
$GPGSV,3,3,10,32,67,308,34,16,06,170,00*73
$GPRMC,181820,A,4005.9132,N,10510.0068,W,000.0,237.9,140413,008.7,E,D*0E
$GPGSV,3,1,10,01,35,257,28,11,17,236,33,14,28,073,27,20,37,309,33*74
$GPGSV,3,2,10,22,12,137,25,23,14,278,29,25,18,047,28,31,76,058,27*76
$GPGSV,3,3,10,32,67,308,34,16,06,170,00*73
$GPRMC,181821,A,4005.9132,N,10510.0068,W,000.0,237.9,140413,008.7,E,D*0F
$GPGSV,3,1,10,01,35,257,28,11,17,236,33,14,28,073,27,20,37,309,34*73
$GPGSV,3,2,10,22,12,137,25,23,14,278,29,25,18,047,29,31,76,058,28*78
$GPGSV,3,3,10,32,67,308,34,16,06,170,00*73
$GPRMC,181822,A,4005.9132,N,10510.0068,W,000.0,237.9,140413,008.7,E,D*0C
$GPGSV,3,1,10,01,35,257,28,11,17,236,33,14,28,073,27,20,37,309,34*73
$GPGSV,3,2,10,22,12,137,25,23,14,278,29,25,18,047,29,31,76,058,28*78
$GPGSV,3,3,10,32,67,308,34,16,06,170,00*73
$GPRMC,181823,A,4005.9132,N,10510.0069,W,000.0,237.9,140413,008.7,E,D*0C
$GPGSV,3,1,10,01,35,257,28,11,17,236,33,14,28,073,27,20,37,309,34*73
$GPGSV,3,2,10,22,12,137,25,23,14,278,29,25,18,047,30,31,76,058,28*70
$GPGSV,3,3,10,32,67,308,34,16,06,170,00*73
$GPRMC,181824,A,4005.9132,N,10510.0069,W,000.0,237.9,140413,008.7,E,D*0B
$GPGSV,3,1,10,01,35,257,28,11,17,236,33,14,28,073,27,20,37,309,34*73
$GPGSV,3,2,10,22,12,137,25,23,14,278,29,25,18,047,30,31,76,058,28*70
$GPGSV,3,3,10,32,67,308,34,16,06,170,00*73
$GPRMC,181825,A,4005.9132,N,10510.0069,W,000.0,237.9,140413,008.7,E,D*0A
$GPGSV,3,1,10,01,35,257,28,11,17,236,33,14,28,073,27,20,37,309,34*73
$GPGSV,3,2,10,22,12,137,25,23,14,278,29,25,18,047,30,31,76,058,28*70
$GPGSV,3,3,10,32,67,308,34,16,06,170,00*73
$GPRMC,181826,A,4005.9132,N,10510.0069,W,000.0,237.9,140413,008.7,E,D*09
$GPGSV,3,1,10,01,35,257,28,11,17,236,33,14,28,073,27,20,37,309,34*73
$GPGSV,3,2,10,22,12,137,25,23,14,278,29,25,18,047,30,31,76,058,28*70
$GPGSV,3,3,10,32,67,308,34,16,06,170,00*73
$GPRMC,181827,A,4005.9132,N,10510.0069,W,000.0,237.9,140413,008.7,E,D*08
$GPGSV,3,1,10,01,35,257,28,11,17,236,33,14,28,073,27,20,37,309,34*73
$GPGSV,3,2,10,22,12,137,26,23,14,278,30,25,18,047,30,31,76,058,29*7A
$GPGSV,3,3,10,32,67,308,34,16,06,170,00*73
$GPRMC,181828,A,4005.9132,N,10510.0069,W,000.0,237.9,140413,008.7,E,D*07
$GPGSV,3,1,10,01,35,257,28,11,17,236,33,14,28,073,27,20,37,309,34*73
$GPGSV,3,2,10,22,12,137,26,23,14,278,30,25,18,047,30,31,76,057,29*75
$GPGSV,3,3,10,32,67,308,34,16,06,170,00*73
$GPRMC,181829,A,4005.9132,N,10510.0069,W,000.0,237.9,140413,008.7,E,D*06
$GPGSV,3,1,10,01,35,257,28,11,17,236,33,14,28,073,27,20,37,309,34*73
$GPGSV,3,2,10,22,12,137,26,23,14,278,30,25,18,047,30,31,76,057,29*75
$GPGSV,3,3,10,32,67,308,34,16,06,170,00*73
$GPRMC,181830,A,4005.9132,N,10510.0069,W,000.0,237.9,140413,008.7,E,D*0E
$GPGSV,3,1,10,01,35,257,28,11,17,236,32,14,28,073,27,20,37,309,34*72
$GPGSV,3,2,10,22,12,137,25,23,14,278,29,25,18,047,30,31,76,057,29*7E
$GPGSV,3,3,10,32,67,308,34,16,06,170,00*73
$GPRMC,181831,A,4005.9132,N,10510.0069,W,000.0,237.9,140413,008.7,E,D*0F
$GPGSV,3,1,10,01,35,257,28,11,17,236,31,14,28,073,26,20,37,309,34*70
$GPGSV,3,2,10,22,12,137,25,23,14,278,29,25,18,047,30,31,76,057,29*7E
$GPGSV,3,3,10,32,67,308,34,16,06,170,00*73
$GPRMC,181832,A,4005.9132,N,10510.0069,W,000.0,237.9,140413,008.7,E,D*0C
$GPGSV,3,1,10,01,35,257,28,11,17,236,31,14,28,073,26,20,37,309,34*70
$GPGSV,3,2,10,22,12,137,25,23,14,278,29,25,18,047,30,31,76,057,29*7E
$GPGSV,3,3,10,32,67,308,34,16,06,170,00*73
$GPRMC,181833,A,4005.9132,N,10510.0069,W,000.0,237.9,140413,008.7,E,D*0D
$GPGSV,3,1,10,01,35,257,28,11,17,236,31,14,28,073,26,20,37,309,34*70
$GPGSV,3,2,10,22,12,137,26,23,14,278,29,25,18,047,30,31,76,057,29*7D
$GPGSV,3,3,10,32,67,308,34,16,06,170,00*73
$GPRMC,181834,A,4005.9132,N,10510.0069,W,000.0,237.9,140413,008.7,E,D*0A
$GPGSV,3,1,10,01,35,257,28,11,17,236,31,14,28,073,26,20,37,309,34*70
$GPGSV,3,2,10,22,12,137,26,23,14,278,29,25,18,047,30,31,76,057,29*7D
$GPGSV,3,3,10,32,67,308,34,16,06,170,00*73
$GPRMC,181835,A,4005.9132,N,10510.0069,W,000.0,237.9,140413,008.7,E,D*0B
$GPGSV,3,1,10,01,35,257,28,11,17,236,31,14,28,073,26,20,37,309,34*70
$GPGSV,3,2,10,22,12,137,26,23,14,278,29,25,18,047,30,31,76,057,29*7D
$GPGSV,3,3,10,32,67,308,34,16,06,170,00*73
$GPRMC,181836,A,4005.9132,N,10510.0069,W,000.0,237.9,140413,008.7,E,D*08
$GPGSV,3,1,10,01,35,257,27,11,17,236,31,14,28,073,26,20,37,309,34*7F
$GPGSV,3,2,10,22,12,137,26,23,14,278,29,25,18,047,30,31,76,057,29*7D
$GPGSV,3,3,10,32,67,308,34,16,06,170,00*73
$GPRMC,181837,A,4005.9132,N,10510.0069,W,000.0,237.9,140413,008.7,E,D*09
$GPGSV,3,1,10,01,35,257,27,11,17,236,31,14,28,073,25,20,37,309,34*7C
$GPGSV,3,2,10,22,12,137,26,23,14,278,29,25,18,047,30,31,76,057,29*7D
$GPGSV,3,3,10,32,67,308,34,16,06,170,00*73
$GPRMC,181838,A,4005.9132,N,10510.0069,W,000.0,237.9,140413,008.7,E,D*06
$GPGSV,3,1,10,01,35,257,27,11,17,236,31,14,28,073,25,20,37,309,34*7C
$GPGSV,3,2,10,22,12,137,26,23,14,278,28,25,18,047,30,31,76,057,28*7D
$GPGSV,3,3,10,32,67,308,34,16,06,170,00*73
$GPRMC,181839,A,4005.9132,N,10510.0069,W,000.0,237.9,140413,008.7,E,D*07
$GPGSV,3,1,10,01,35,257,27,11,17,236,31,14,28,073,25,20,37,309,34*7C
$GPGSV,3,2,10,22,12,137,25,23,14,278,28,25,18,047,29,31,76,057,28*76
$GPGSV,3,3,10,32,67,308,34,16,06,170,00*73
$GPRMC,181840,A,4005.9132,N,10510.0069,W,000.0,237.9,140413,008.7,E,D*09
$GPGSV,3,1,10,01,35,257,27,11,17,236,31,14,28,073,25,20,37,309,34*7C
$GPGSV,3,2,10,22,12,137,25,23,14,278,28,25,18,047,29,31,76,057,28*76
$GPGSV,3,3,10,32,67,308,34,16,06,170,00*73
$GPRMC,181841,A,4005.9132,N,10510.0069,W,000.0,237.9,140413,008.7,E,D*08
$GPGSV,3,1,10,01,35,257,27,11,17,236,31,14,28,073,25,20,37,309,34*7C
$GPGSV,3,2,10,22,12,137,25,23,14,278,28,25,18,047,29,31,76,057,28*76
$GPGSV,3,3,10,32,67,308,34,16,06,170,00*73
$GPRMC,181842,A,4005.9132,N,10510.0069,W,000.0,237.9,140413,008.7,E,D*0B
$GPGSV,3,1,10,01,35,257,27,11,17,236,30,14,28,073,25,20,37,309,34*7D
$GPGSV,3,2,10,22,12,137,25,23,14,278,28,25,18,047,29,31,76,057,28*76
$GPGSV,3,3,10,32,67,308,34,16,06,170,00*73
$GPRMC,181843,A,4005.9132,N,10510.0069,W,000.0,237.9,140413,008.7,E,D*0A
$GPGSV,3,1,10,01,35,257,26,11,17,236,30,14,28,074,25,20,37,309,34*7B
$GPGSV,3,2,10,22,12,137,25,23,14,278,28,25,18,047,29,31,76,057,28*76
$GPGSV,3,3,10,32,67,308,34,16,06,170,00*73
$GPRMC,181844,A,4005.9132,N,10510.0069,W,000.0,237.9,140413,008.7,E,D*0D
$GPGSV,3,1,10,01,35,257,26,11,17,236,30,14,28,074,24,20,37,309,34*7A
$GPGSV,3,2,10,22,12,137,25,23,14,278,28,25,18,047,29,31,76,057,27*79
$GPGSV,3,3,10,32,67,308,34,16,06,170,00*73
$GPRMC,181845,A,4005.9132,N,10510.0069,W,000.0,237.9,140413,008.7,E,D*0C
$GPGSV,3,1,10,01,35,257,27,11,17,236,31,14,28,074,24,20,37,309,34*7A
$GPGSV,3,2,10,22,12,137,25,23,14,278,29,25,18,047,29,31,76,057,27*78
$GPGSV,3,3,10,32,67,308,34,16,06,170,00*73
$GPRMC,181846,A,4005.9132,N,10510.0069,W,000.0,237.9,140413,008.7,E,D*0F
$GPGSV,3,1,10,01,35,257,27,11,17,236,31,14,28,074,25,20,37,309,34*7B
$GPGSV,3,2,10,22,12,137,25,23,14,278,29,25,18,047,29,31,76,057,27*78
$GPGSV,3,3,10,32,67,308,34,16,06,170,00*73
$GPRMC,181847,A,4005.9132,N,10510.0069,W,000.0,237.9,140413,008.7,E,D*0E
$GPGSV,3,1,10,01,35,257,27,11,17,236,31,14,28,074,25,20,37,309,34*7B
$GPGSV,3,2,10,22,12,137,25,23,14,278,29,25,18,047,29,31,76,057,27*78
$GPGSV,3,3,10,32,67,308,34,16,06,170,00*73
$GPRMC,181848,A,4005.9132,N,10510.0069,W,000.0,237.9,140413,008.7,E,D*01
$GPGSV,3,1,10,01,35,257,27,11,17,236,31,14,28,074,25,20,37,309,34*7B
$GPGSV,3,2,10,22,12,137,25,23,14,278,30,25,18,047,30,31,76,057,27*78
$GPGSV,3,3,10,32,67,308,34,16,06,170,00*73
$GPRMC,181849,A,4005.9132,N,10510.0069,W,000.0,237.9,140413,008.7,E,D*00
$GPGSV,3,1,10,01,35,257,27,11,17,236,31,14,28,074,25,20,38,309,34*74
$GPGSV,3,2,10,22,12,137,25,23,14,278,30,25,18,047,30,31,76,057,27*78
$GPGSV,3,3,10,32,67,308,34,16,06,170,00*73
$GPRMC,181850,A,4005.9132,N,10510.0069,W,000.0,237.9,140413,008.7,E,D*08
$GPGSV,3,1,10,01,35,257,27,11,17,236,31,14,28,074,25,20,38,309,34*74
$GPGSV,3,2,10,22,12,137,25,23,14,278,30,25,18,047,30,31,76,057,27*78
$GPGSV,3,3,10,32,67,308,34,16,06,170,00*73
$GPRMC,181851,A,4005.9132,N,10510.0069,W,000.0,237.9,140413,008.7,E,D*09
$GPGSV,3,1,10,01,35,257,27,11,17,236,31,14,28,074,25,20,38,309,34*74
$GPGSV,3,2,10,22,12,137,25,23,14,278,30,25,18,047,30,31,76,057,27*78
$GPGSV,3,3,10,32,67,308,34,16,06,170,00*73
$GPRMC,181852,A,4005.9132,N,10510.0069,W,000.0,237.9,140413,008.7,E,D*0A
$GPGSV,3,1,10,01,35,257,27,11,17,236,31,14,28,074,25,20,38,309,34*74
$GPGSV,3,2,10,22,12,137,25,23,14,278,30,25,18,047,30,31,76,057,26*79
$GPGSV,3,3,10,32,67,308,34,16,06,170,00*73
$GPRMC,181853,A,4005.9132,N,10510.0069,W,000.0,237.9,140413,008.7,E,D*0B
$GPGSV,3,1,10,01,35,257,27,11,17,236,31,14,28,074,25,20,38,309,34*74
$GPGSV,3,2,10,22,12,137,25,23,14,278,30,25,18,047,30,31,76,057,26*79
$GPGSV,3,3,10,32,67,308,34,16,06,170,00*73
$GPRMC,181854,A,4005.9132,N,10510.0069,W,000.0,237.9,140413,008.7,E,D*0C
$GPGSV,3,1,10,01,35,257,27,11,17,236,31,14,28,074,25,20,38,309,34*74
$GPGSV,3,2,10,22,12,137,25,23,14,278,30,25,18,046,30,31,76,057,26*78
$GPGSV,3,3,10,32,67,308,34,16,06,170,00*73
$GPRMC,181855,A,4005.9132,N,10510.0069,W,000.0,237.9,140413,008.7,E,D*0D
$GPGSV,3,1,10,01,35,257,27,11,17,236,31,14,28,074,24,20,38,309,34*75
$GPGSV,3,2,10,22,12,137,25,23,14,278,30,25,18,046,30,31,76,057,26*78
$GPGSV,3,3,10,32,67,308,33,16,06,170,00*74
$GPRMC,181856,A,4005.9132,N,10510.0069,W,000.0,237.9,140413,008.7,E,D*0E
$GPGSV,3,1,10,01,35,257,26,11,17,236,31,14,28,074,23,20,38,309,34*73
$GPGSV,3,2,10,22,12,137,25,23,14,278,30,25,18,046,30,31,76,057,26*78
$GPGSV,3,3,10,32,67,308,33,16,06,170,00*74
$GPRMC,181857,A,4005.9132,N,10510.0069,W,000.0,237.9,140413,008.7,E,D*0F
$GPGSV,3,1,10,01,35,257,25,11,17,236,31,14,28,074,23,20,38,309,34*70
$GPGSV,3,2,10,22,12,137,25,23,14,278,30,25,18,046,30,31,76,057,26*78
$GPGSV,3,3,10,32,67,308,33,16,06,170,00*74
$GPRMC,181858,A,4005.9132,N,10510.0069,W,000.0,237.9,140413,008.7,E,D*00
$GPGSV,3,1,10,01,35,257,25,11,17,236,31,14,28,074,23,20,38,309,34*70
$GPGSV,3,2,10,22,12,137,25,23,14,278,30,25,18,046,30,31,76,057,26*78
$GPGSV,3,3,10,32,67,308,33,16,06,170,00*74
$GPRMC,181859,A,4005.9132,N,10510.0069,W,000.0,237.9,140413,008.7,E,D*01
$GPGSV,3,1,10,01,35,257,25,11,17,236,31,14,28,074,23,20,38,309,34*70
$GPGSV,3,2,10,22,12,137,24,23,14,278,30,25,18,046,30,31,76,057,26*79
$GPGSV,3,3,10,32,67,308,33,16,06,170,00*74
$GPRMC,181900,A,4005.9132,N,10510.0069,W,000.0,237.9,140413,008.7,E,D*0C
$GPGSV,3,1,10,01,35,257,25,11,17,236,31,14,28,074,23,20,38,309,34*70
$GPGSV,3,2,10,22,12,137,24,23,14,278,30,25,18,046,30,31,76,057,26*79
$GPGSV,3,3,10,32,67,308,33,16,06,170,00*74
$GPRMC,181901,A,4005.9132,N,10510.0069,W,000.0,237.9,140413,008.7,E,D*0D
$GPGSV,3,1,10,01,35,257,25,11,17,236,31,14,28,074,23,20,38,309,34*70
$GPGSV,3,2,10,22,12,137,24,23,14,278,30,25,18,046,30,31,76,057,26*79
$GPGSV,3,3,10,32,67,307,33,16,06,170,00*7B
$GPRMC,181902,A,4005.9132,N,10510.0069,W,000.0,237.9,140413,008.7,E,D*0E
$GPGSV,3,1,10,01,35,256,25,11,17,236,31,14,28,074,23,20,38,309,34*71
$GPGSV,3,2,10,22,12,137,24,23,14,278,30,25,18,046,30,31,76,057,26*79
$GPGSV,3,3,10,32,67,307,33,16,06,170,00*7B
$GPRMC,181903,A,4005.9132,N,10510.0069,W,000.0,237.9,140413,008.7,E,D*0F
$GPGSV,3,1,10,01,35,256,25,11,17,236,31,14,28,074,23,20,38,309,34*71
$GPGSV,3,2,10,22,12,137,24,23,14,278,31,25,18,046,30,31,76,057,26*78
$GPGSV,3,3,10,32,67,307,33,16,06,170,00*7B
$GPRMC,181904,A,4005.9132,N,10510.0069,W,000.0,237.9,140413,008.7,E,D*08
$GPGSV,3,1,10,01,35,256,25,11,17,236,31,14,28,074,23,20,38,309,34*71
$GPGSV,3,2,10,22,12,137,23,23,14,278,31,25,18,046,30,31,76,057,27*7E
$GPGSV,3,3,10,32,67,307,33,16,06,170,00*7B
$GPRMC,181905,A,4005.9132,N,10510.0070,W,000.0,237.9,140413,008.7,E,D*01
$GPGSV,3,1,10,01,35,256,26,11,17,236,31,14,28,074,23,20,38,309,34*72
$GPGSV,3,2,10,22,12,137,23,23,14,278,31,25,18,046,30,31,76,057,27*7E
$GPGSV,3,3,10,32,67,307,33,16,06,170,00*7B
$GPRMC,181906,A,4005.9132,N,10510.0070,W,000.0,237.9,140413,008.7,E,D*02
$GPGSV,3,1,10,01,35,256,26,11,17,236,31,14,28,074,23,20,38,309,34*72
$GPGSV,3,2,10,22,12,137,23,23,14,278,31,25,18,046,30,31,76,057,27*7E
$GPGSV,3,3,10,32,67,307,33,16,06,170,00*7B
$GPRMC,181907,A,4005.9132,N,10510.0070,W,000.0,237.9,140413,008.7,E,D*03
$GPGSV,3,1,10,01,35,256,26,11,17,236,31,14,28,074,23,20,38,309,34*72
$GPGSV,3,2,10,22,12,137,23,23,14,278,31,25,18,046,29,31,76,057,27*76
$GPGSV,3,3,10,32,67,307,33,16,06,170,00*7B
$GPRMC,181908,A,4005.9132,N,10510.0070,W,000.0,237.9,140413,008.7,E,D*0C
$GPGSV,3,1,10,01,35,256,26,11,17,236,31,14,28,074,23,20,38,309,34*72
$GPGSV,3,2,10,22,12,137,23,23,14,278,31,25,18,046,29,31,76,057,27*76
$GPGSV,3,3,10,32,67,307,33,16,06,170,00*7B
$GPRMC,181909,A,4005.9132,N,10510.0070,W,000.0,237.9,140413,008.7,E,D*0D
$GPGSV,3,1,10,01,35,256,25,11,17,236,31,14,28,074,23,20,38,309,34*71
$GPGSV,3,2,10,22,12,137,23,23,14,278,31,25,18,046,29,31,76,057,27*76
$GPGSV,3,3,10,32,67,307,33,16,06,170,00*7B
$GPRMC,181910,A,4005.9132,N,10510.0070,W,000.0,237.9,140413,008.7,E,D*05
$GPGSV,3,1,10,01,35,256,25,11,17,236,31,14,28,074,24,20,38,309,34*76
$GPGSV,3,2,10,22,12,137,23,23,14,278,32,25,18,046,29,31,76,057,27*75
$GPGSV,3,3,10,32,67,307,33,16,06,170,00*7B
$GPRMC,181911,A,4005.9132,N,10510.0070,W,000.0,237.9,140413,008.7,E,D*04
$GPGSV,3,1,10,01,35,256,26,11,17,236,31,14,28,074,25,20,38,309,35*75
$GPGSV,3,2,10,22,12,137,23,23,14,278,32,25,18,046,30,31,76,057,28*72
$GPGSV,3,3,10,32,67,307,34,16,06,170,00*7C
$GPRMC,181912,A,4005.9132,N,10510.0070,W,000.0,237.9,140413,008.7,E,D*07
$GPGSV,3,1,10,01,35,256,26,11,17,236,31,14,28,074,24,20,38,309,35*74
$GPGSV,3,2,10,22,12,137,23,23,14,278,32,25,18,046,30,31,76,057,28*72
$GPGSV,3,3,10,32,67,307,34,16,06,170,00*7C
$GPRMC,181913,A,4005.9132,N,10510.0070,W,000.0,237.9,140413,008.7,E,D*06
$GPGSV,3,1,10,01,35,256,26,11,17,236,31,14,28,074,25,20,38,309,35*75
$GPGSV,3,2,10,22,12,137,23,23,14,278,32,25,18,046,30,31,76,057,28*72
$GPGSV,3,3,10,32,67,307,34,16,06,170,00*7C
$GPRMC,181914,A,4005.9132,N,10510.0070,W,000.0,237.9,140413,008.7,E,D*01
$GPGSV,3,1,10,01,35,256,26,11,17,236,31,14,28,074,25,20,38,309,35*75
$GPGSV,3,2,10,22,12,137,23,23,14,278,32,25,18,046,30,31,76,057,28*72
$GPGSV,3,3,10,32,67,307,34,16,06,170,00*7C
$GPRMC,181915,A,4005.9132,N,10510.0070,W,000.0,237.9,140413,008.7,E,D*00
$GPGSV,3,1,10,01,35,256,25,11,17,236,31,14,28,074,24,20,38,309,35*77
$GPGSV,3,2,10,22,12,137,23,23,14,278,32,25,18,046,30,31,76,057,28*72
$GPGSV,3,3,10,32,67,307,34,16,06,170,00*7C
$GPRMC,181916,A,4005.9132,N,10510.0070,W,000.0,237.9,140413,008.7,E,D*03
$GPGSV,3,1,10,01,35,256,25,11,17,236,31,14,28,074,24,20,38,309,34*76
$GPGSV,3,2,10,22,12,137,23,23,14,278,32,25,18,046,30,31,76,057,28*72
$GPGSV,3,3,10,32,67,307,34,16,06,170,00*7C
$GPRMC,181917,A,4005.9132,N,10510.0070,W,000.0,237.9,140413,008.7,E,D*02
$GPGSV,3,1,10,01,35,256,25,11,17,236,31,14,28,074,23,20,38,309,34*71
$GPGSV,3,2,10,22,12,137,23,23,14,278,32,25,18,046,30,31,76,057,28*72
$GPGSV,3,3,10,32,67,307,34,16,06,170,00*7C
$GPRMC,181918,A,4005.9132,N,10510.0070,W,000.0,237.9,140413,008.7,E,D*0D
$GPGSV,3,1,10,01,35,256,25,11,17,236,31,14,28,074,22,20,38,309,34*70
$GPGSV,3,2,10,22,12,137,22,23,14,278,32,25,18,046,30,31,76,057,28*73
$GPGSV,3,3,10,32,67,307,34,16,06,170,00*7C
$GPRMC,181919,A,4005.9132,N,10510.0070,W,000.0,237.9,140413,008.7,E,D*0C
$GPGSV,3,1,10,01,35,256,25,11,17,236,31,14,28,074,21,20,38,309,34*73
$GPGSV,3,2,10,22,12,137,22,23,14,278,32,25,18,046,30,31,76,057,28*73
$GPGSV,3,3,10,32,67,307,34,16,06,170,00*7C
$GPRMC,181920,A,4005.9132,N,10510.0070,W,000.0,237.9,140413,008.7,E,D*06
$GPGSV,3,1,10,01,35,256,25,11,17,236,31,14,28,074,21,20,38,309,34*73
$GPGSV,3,2,10,22,12,137,22,23,14,278,32,25,18,046,30,31,76,057,28*73
$GPGSV,3,3,10,32,67,307,34,16,06,170,00*7C
$GPRMC,181921,A,4005.9132,N,10510.0070,W,000.0,237.9,140413,008.7,E,D*07
$GPGSV,3,1,10,01,35,256,25,11,17,236,31,14,28,074,21,20,38,309,34*73
$GPGSV,3,2,10,22,12,137,21,23,14,278,32,25,18,046,30,31,76,057,28*70
$GPGSV,3,3,10,32,67,307,33,16,06,170,00*7B
$GPRMC,181922,A,4005.9132,N,10510.0070,W,000.0,237.9,140413,008.7,E,D*04
$GPGSV,3,1,10,01,35,256,25,11,17,236,31,14,28,074,20,20,38,309,34*72
$GPGSV,3,2,10,22,12,137,21,23,14,278,32,25,18,046,30,31,76,057,28*70
$GPGSV,3,3,10,32,67,307,33,16,06,170,00*7B
$GPRMC,181923,A,4005.9132,N,10510.0070,W,000.0,237.9,140413,008.7,E,D*05
$GPGSV,3,1,10,01,35,256,25,11,17,236,31,14,28,074,19,20,38,309,34*78
$GPGSV,3,2,10,22,12,137,21,23,14,278,32,25,18,046,30,31,76,057,28*70
$GPGSV,3,3,10,32,67,307,33,16,06,170,00*7B
$GPRMC,181924,A,4005.9132,N,10510.0070,W,000.0,237.9,140413,008.7,E,D*02
$GPGSV,3,1,10,01,35,256,25,11,17,236,31,14,28,074,19,20,38,309,34*78
$GPGSV,3,2,10,22,12,137,22,23,14,278,32,25,18,046,30,31,76,057,28*73
$GPGSV,3,3,10,32,67,307,33,16,06,170,00*7B
$GPRMC,181925,A,4005.9132,N,10510.0070,W,000.0,237.9,140413,008.7,E,D*03
$GPGSV,3,1,10,01,35,256,25,11,17,236,32,14,28,074,19,20,38,309,34*7B
$GPGSV,3,2,10,22,12,137,22,23,14,278,32,25,18,046,30,31,76,057,28*73
$GPGSV,3,3,10,32,67,307,33,16,06,170,00*7B
$GPRMC,181926,A,4005.9132,N,10510.0070,W,000.0,237.9,140413,008.7,E,D*00
$GPGSV,3,1,10,01,35,256,26,11,17,236,32,14,28,074,20,20,38,309,34*72
$GPGSV,3,2,10,22,12,137,23,23,14,278,32,25,18,046,30,31,76,057,28*72
$GPGSV,3,3,10,32,67,307,34,16,06,170,00*7C
$GPRMC,181927,A,4005.9132,N,10510.0070,W,000.0,237.9,140413,008.7,E,D*01
$GPGSV,3,1,10,01,35,256,26,11,17,236,32,14,28,074,20,20,38,309,34*72
$GPGSV,3,2,10,22,12,137,23,23,14,278,32,25,18,046,30,31,76,057,29*73
$GPGSV,3,3,10,32,67,307,34,16,06,170,00*7C
$GPRMC,181928,A,4005.9132,N,10510.0070,W,000.0,237.9,140413,008.7,E,D*0E
$GPGSV,3,1,10,01,35,256,26,11,17,236,32,14,28,074,20,20,38,309,34*72
$GPGSV,3,2,10,22,12,137,23,23,14,278,32,25,18,046,30,31,76,057,29*73
$GPGSV,3,3,10,32,67,307,34,16,06,170,00*7C
$GPRMC,181929,A,4005.9132,N,10510.0070,W,000.0,237.9,140413,008.7,E,D*0F
$GPGSV,3,1,10,01,35,256,27,11,17,236,32,14,28,074,20,20,38,309,34*73
$GPGSV,3,2,10,22,12,137,23,23,14,278,32,25,18,046,30,31,76,057,29*73
$GPGSV,3,3,10,32,67,307,34,16,06,170,00*7C
$GPRMC,181930,A,4005.9132,N,10510.0070,W,000.0,237.9,140413,008.7,E,D*07
$GPGSV,3,1,10,01,35,256,27,11,17,236,32,14,28,074,20,20,38,309,34*73
$GPGSV,3,2,10,22,12,137,22,23,14,278,32,25,18,046,30,31,76,057,29*72
$GPGSV,3,3,10,32,67,307,33,16,06,170,00*7B
$GPRMC,181931,A,4005.9132,N,10510.0070,W,000.0,237.9,140413,008.7,E,D*06
$GPGSV,3,1,10,01,35,256,27,11,17,236,32,14,28,074,21,20,38,309,34*72
$GPGSV,3,2,10,22,12,137,21,23,14,278,32,25,18,046,30,31,76,057,28*70
$GPGSV,3,3,10,32,67,307,33,16,06,170,00*7B
$GPRMC,181932,A,4005.9132,N,10510.0070,W,000.0,237.9,140413,008.7,E,D*05
$GPGSV,3,1,10,01,35,256,27,11,17,236,32,14,28,074,20,20,38,309,34*73
$GPGSV,3,2,10,22,12,137,21,23,14,278,32,25,18,046,30,31,76,056,28*71
$GPGSV,3,3,10,32,67,307,33,16,06,170,00*7B
$GPRMC,181933,A,4005.9132,N,10510.0070,W,000.0,237.9,140413,008.7,E,D*04
$GPGSV,3,1,10,01,35,256,27,11,17,236,32,14,28,074,19,20,38,309,34*79
$GPGSV,3,2,10,22,12,137,21,23,14,278,31,25,18,046,30,31,76,056,28*72
$GPGSV,3,3,10,32,68,307,33,16,06,170,00*74
$GPRMC,181934,A,4005.9132,N,10510.0070,W,000.0,237.9,140413,008.7,E,D*03
$GPGSV,3,1,10,01,35,256,27,11,17,236,32,14,28,074,18,20,38,309,34*78
$GPGSV,3,2,10,22,12,137,21,23,14,278,31,25,18,046,30,31,76,056,28*72
$GPGSV,3,3,10,32,68,307,33,16,06,170,00*74
$GPRMC,181935,A,4005.9132,N,10510.0070,W,000.0,237.9,140413,008.7,E,D*02
$GPGSV,3,1,10,01,35,256,27,11,17,236,32,14,28,074,18,20,38,309,34*78
$GPGSV,3,2,10,22,12,137,21,23,14,278,30,25,18,046,30,31,76,056,28*73
$GPGSV,3,3,10,32,68,307,33,16,06,170,00*74
$GPRMC,181936,A,4005.9132,N,10510.0070,W,000.0,237.9,140413,008.7,E,D*01
$GPGSV,3,1,10,01,35,256,28,11,17,236,32,14,28,074,19,20,38,309,34*76
$GPGSV,3,2,10,22,12,137,20,23,14,278,30,25,18,046,30,31,76,056,28*72
$GPGSV,3,3,10,32,68,307,33,16,06,170,00*74
$GPRMC,181937,A,4005.9132,N,10510.0070,W,000.0,237.9,140413,008.7,E,D*00
$GPGSV,3,1,10,01,35,256,28,11,17,236,32,14,28,074,20,20,38,309,34*7C
$GPGSV,3,2,10,22,12,137,19,23,14,278,30,25,18,046,30,31,76,056,28*78
$GPGSV,3,3,10,32,68,307,33,16,06,170,00*74
$GPRMC,181938,A,4005.9132,N,10510.0070,W,000.0,237.9,140413,008.7,E,D*0F
$GPGSV,3,1,10,01,35,256,28,11,17,236,32,14,28,074,20,20,38,309,34*7C
$GPGSV,3,2,10,22,12,137,18,23,14,278,30,25,18,046,29,31,76,056,28*71
$GPGSV,3,3,10,32,68,307,33,16,06,170,00*74
$GPRMC,181939,A,4005.9132,N,10510.0070,W,000.0,237.9,140413,008.7,E,D*0E
$GPGSV,3,1,10,01,35,256,28,11,17,236,32,14,28,074,21,20,38,309,34*7D
$GPGSV,3,2,10,22,12,137,18,23,14,278,29,25,18,046,29,31,76,056,28*79
$GPGSV,3,3,10,32,68,307,33,16,06,170,00*74
$GPRMC,181940,A,4005.9132,N,10510.0070,W,000.0,237.9,140413,008.7,E,D*00
$GPGSV,3,1,10,01,35,256,28,11,17,236,32,14,28,074,21,20,38,309,34*7D
$GPGSV,3,2,10,22,12,137,19,23,14,278,29,25,18,046,29,31,76,056,29*79
$GPGSV,3,3,10,32,68,307,33,16,06,170,00*74
$GPRMC,181941,A,4005.9132,N,10510.0070,W,000.0,237.9,140413,008.7,E,D*01
$GPGSV,3,1,10,01,35,256,29,11,17,236,32,14,28,074,22,20,38,309,34*7F
$GPGSV,3,2,10,22,12,137,20,23,14,278,30,25,18,046,29,31,76,056,30*73
$GPGSV,3,3,10,32,68,307,33,16,06,170,00*74
$GPRMC,181942,A,4005.9132,N,10510.0070,W,000.0,237.9,140413,008.7,E,D*02
$GPGSV,3,1,10,01,35,256,29,11,17,236,32,14,28,074,22,20,38,309,34*7F
$GPGSV,3,2,10,22,12,137,21,23,14,278,31,25,18,046,29,31,76,056,30*73
$GPGSV,3,3,10,32,68,307,33,16,06,170,00*74
$GPRMC,181943,A,4005.9132,N,10510.0070,W,000.0,237.9,140413,008.7,E,D*03
$GPGSV,3,1,10,01,35,256,30,11,17,236,32,14,28,074,22,20,38,309,35*76
$GPGSV,3,2,10,22,12,137,21,23,14,278,31,25,18,046,29,31,76,056,30*73
$GPGSV,3,3,10,32,68,307,33,16,06,170,00*74
$GPRMC,181944,A,4005.9132,N,10510.0070,W,000.0,237.9,140413,008.7,E,D*04
$GPGSV,3,1,10,01,35,256,30,11,17,236,32,14,28,074,22,20,38,309,35*76
$GPGSV,3,2,10,22,12,137,21,23,14,278,31,25,18,046,29,31,76,056,30*73
$GPGSV,3,3,10,32,68,307,33,16,06,170,00*74
$GPRMC,181945,A,4005.9132,N,10510.0070,W,000.0,237.9,140413,008.7,E,D*05
$GPGSV,3,1,10,01,35,256,30,11,17,236,32,14,28,074,22,20,38,309,35*76
$GPGSV,3,2,10,22,12,137,21,23,14,278,31,25,18,046,29,31,76,056,30*73
$GPGSV,3,3,10,32,68,307,33,16,06,170,00*74
$GPRMC,181946,A,4005.9132,N,10510.0070,W,000.0,237.9,140413,008.7,E,D*06
$GPGSV,3,1,10,01,35,256,30,11,17,236,32,14,28,074,22,20,38,309,35*76
$GPGSV,3,2,10,22,12,137,20,23,14,278,31,25,18,046,29,31,76,056,30*72
$GPGSV,3,3,10,32,68,307,33,16,06,170,00*74
$GPRMC,181947,A,4005.9132,N,10510.0070,W,000.0,237.9,140413,008.7,E,D*07
$GPGSV,3,1,10,01,35,256,29,11,17,236,32,14,28,074,22,20,38,309,35*7E
$GPGSV,3,2,10,22,12,137,20,23,14,278,30,25,18,046,29,31,76,056,30*73
$GPGSV,3,3,10,32,68,307,33,16,06,170,00*74
$GPRMC,181948,A,4005.9132,N,10510.0070,W,000.0,237.9,140413,008.7,E,D*08
$GPGSV,3,1,10,01,35,256,29,11,17,236,32,14,28,074,22,20,38,309,34*7F
$GPGSV,3,2,10,22,12,137,20,23,14,278,30,25,18,046,29,31,76,056,30*73
$GPGSV,3,3,10,32,68,307,33,16,06,170,00*74
$GPRMC,181949,A,4005.9132,N,10510.0070,W,000.0,237.9,140413,008.7,E,D*09
$GPGSV,3,1,10,01,35,256,29,11,17,236,32,14,28,074,22,20,38,309,34*7F
$GPGSV,3,2,10,22,12,137,20,23,14,278,29,25,18,046,29,31,76,056,30*7B
$GPGSV,3,3,10,32,68,307,33,16,06,170,00*74
$GPRMC,181950,A,4005.9132,N,10510.0070,W,000.0,237.9,140413,008.7,E,D*01
$GPGSV,3,1,10,01,35,256,29,11,17,236,32,14,28,074,22,20,38,309,34*7F
$GPGSV,3,2,10,22,12,137,20,23,14,278,28,25,18,046,29,31,76,056,30*7A
$GPGSV,3,3,10,32,68,307,33,16,07,170,00*75
$GPRMC,181951,A,4005.9132,N,10510.0070,W,000.0,237.9,140413,008.7,E,D*00
$GPGSV,3,1,10,01,35,256,29,11,17,236,32,14,28,074,21,20,38,309,34*7C
$GPGSV,3,2,10,22,12,137,20,23,14,278,28,25,18,046,29,31,76,056,30*7A
$GPGSV,3,3,10,32,68,307,33,16,07,170,00*75
$GPRMC,181952,A,4005.9132,N,10510.0070,W,000.0,237.9,140413,008.7,E,D*03
$GPGSV,3,1,10,01,35,256,29,11,17,236,32,14,28,074,20,20,38,309,34*7D
$GPGSV,3,2,10,22,12,137,20,23,14,278,28,25,18,046,29,31,76,056,30*7A
$GPGSV,3,3,10,32,68,307,33,16,07,170,00*75
$GPRMC,181953,A,4005.9132,N,10510.0070,W,000.0,237.9,140413,008.7,E,D*02
$GPGSV,3,1,10,01,35,256,29,11,17,236,32,14,28,074,21,20,38,309,34*7C
$GPGSV,3,2,10,22,12,137,21,23,14,278,28,25,18,046,29,31,76,056,30*7B
$GPGSV,3,3,10,32,68,307,33,16,07,170,00*75
$GPRMC,181954,A,4005.9132,N,10510.0070,W,000.0,237.9,140413,008.7,E,D*05
$GPGSV,3,1,10,01,35,256,29,11,17,236,32,14,28,074,21,20,38,309,34*7C
$GPGSV,3,2,10,22,12,137,20,23,14,278,28,25,18,046,28,31,76,056,30*7B
$GPGSV,3,3,10,32,68,307,33,16,07,170,00*75
$GPRMC,181955,A,4005.9132,N,10510.0070,W,000.0,237.9,140413,008.7,E,D*04
$GPGSV,3,1,10,01,35,256,29,11,17,236,32,14,28,074,21,20,38,309,34*7C
$GPGSV,3,2,10,22,12,137,20,23,14,278,28,25,18,046,28,31,76,056,30*7B
$GPGSV,3,3,10,32,68,307,33,16,07,170,00*75
$GPRMC,181956,A,4005.9132,N,10510.0070,W,000.0,237.9,140413,008.7,E,D*07
$GPGSV,3,1,10,01,35,256,29,11,17,236,32,14,28,074,21,20,38,309,34*7C
$GPGSV,3,2,10,22,12,137,20,23,15,279,28,25,18,046,28,31,76,056,30*7B
$GPGSV,3,3,10,32,68,307,33,16,07,170,00*75
$GPRMC,181957,A,4005.9132,N,10510.0070,W,000.0,237.9,140413,008.7,E,D*06
$GPGSV,3,1,10,01,35,256,29,11,17,236,31,14,28,074,21,20,38,309,34*7F
$GPGSV,3,2,10,22,12,137,20,23,15,279,28,25,18,046,28,31,76,056,30*7B
$GPGSV,3,3,10,32,68,307,33,16,07,170,00*75
$GPRMC,181958,A,4005.9132,N,10510.0070,W,000.0,237.9,140413,008.7,E,D*09
$GPGSV,3,1,10,01,35,256,30,11,17,236,31,14,28,074,22,20,38,309,34*74
$GPGSV,3,2,10,22,12,137,20,23,15,279,28,25,18,046,29,31,76,056,30*7A
$GPGSV,3,3,10,32,68,307,33,16,07,170,00*75
$GPRMC,181959,A,4005.9132,N,10510.0070,W,000.0,237.9,140413,008.7,E,D*08
$GPGSV,3,1,10,01,35,256,30,11,17,236,30,14,28,074,22,20,38,309,34*75
$GPGSV,3,2,10,22,12,137,20,23,15,279,28,25,18,046,29,31,76,056,30*7A
$GPGSV,3,3,10,32,68,307,34,16,07,170,00*72
$GPRMC,182000,A,4005.9132,N,10510.0070,W,000.0,237.9,140413,008.7,E,D*0E
$GPGSV,3,1,10,01,35,256,30,11,17,236,30,14,28,074,22,20,38,309,34*75
$GPGSV,3,2,10,22,12,137,19,23,15,279,29,25,18,046,29,31,76,056,30*71
$GPGSV,3,3,10,32,68,307,34,16,07,170,00*72
$GPRMC,182001,A,4005.9132,N,10510.0070,W,000.0,237.9,140413,008.7,E,D*0F
$GPGSV,3,1,10,01,35,256,30,11,17,236,30,14,28,074,23,20,38,309,34*74
$GPGSV,3,2,10,22,12,137,19,23,15,279,29,25,18,046,30,31,76,056,30*79
$GPGSV,3,3,10,32,68,307,34,16,07,170,00*72
$GPRMC,182002,A,4005.9132,N,10510.0070,W,000.0,237.9,140413,008.7,E,D*0C
$GPGSV,3,1,10,01,35,256,30,11,17,236,30,14,28,074,23,20,38,309,34*74
$GPGSV,3,2,10,22,12,137,19,23,15,279,29,25,18,046,30,31,76,056,30*79
$GPGSV,3,3,10,32,68,307,34,16,07,170,00*72
$GPRMC,182003,A,4005.9132,N,10510.0070,W,000.0,237.9,140413,008.7,E,D*0D
$GPGSV,3,1,10,01,35,256,30,11,17,236,30,14,28,074,23,20,38,309,34*74
$GPGSV,3,2,10,22,12,137,19,23,15,279,29,25,18,046,30,31,76,056,30*79
$GPGSV,3,3,10,32,68,307,34,16,07,170,00*72
$GPRMC,182004,A,4005.9132,N,10510.0070,W,000.0,237.9,140413,008.7,E,D*0A
$GPGSV,3,1,10,01,35,256,30,11,17,236,30,14,28,074,22,20,38,309,34*75
$GPGSV,3,2,10,22,12,137,20,23,15,279,29,25,18,046,30,31,75,056,30*70
$GPGSV,3,3,10,32,68,307,35,16,07,170,00*73
$GPRMC,182005,A,4005.9132,N,10510.0070,W,000.0,237.9,140413,008.7,E,D*0B
$GPGSV,3,1,10,01,35,256,29,11,17,236,22,14,28,074,22,20,38,309,33*79
$GPGSV,3,2,10,22,12,137,19,23,15,279,28,25,18,046,28,31,75,056,30*72
$GPGSV,3,3,10,32,68,307,33,16,07,170,00*75
$GPRMC,182006,A,4005.9132,N,10510.0070,W,000.0,237.9,140413,008.7,E,D*08
$GPGSV,3,1,10,01,34,256,28,11,17,236,13,14,28,074,21,20,38,309,31*7A
$GPGSV,3,2,10,22,12,137,18,23,15,279,26,25,18,046,19,31,75,056,29*77
$GPGSV,3,3,10,32,68,307,31,16,07,170,00*77
$GPRMC,182007,A,4005.9132,N,10510.0070,W,000.0,237.9,140413,008.7,E,D*09
$GPGSV,3,1,10,01,34,256,27,11,17,236,14,14,28,074,13,20,38,309,30*72
$GPGSV,3,2,10,23,15,279,26,25,18,046,20,31,75,056,28,32,68,307,30*7B
$GPGSV,3,3,10,16,07,170,00,22,13,136,00*78
$GPRMC,182008,A,4005.9132,N,10510.0070,W,000.0,237.9,140413,008.7,E,D*06
$GPGSV,3,1,10,01,34,256,27,11,17,236,15,14,28,074,13,20,38,309,30*73
$GPGSV,3,2,10,23,15,279,26,25,18,046,21,31,75,056,28,32,68,307,30*7A
$GPGSV,3,3,10,16,07,170,00,22,13,136,00*78
$GPRMC,182009,A,4005.9132,N,10510.0070,W,000.0,237.9,140413,008.7,E,D*07
$GPGSV,3,1,10,01,34,256,27,11,17,236,16,14,28,074,14,20,38,309,30*77
$GPGSV,3,2,10,23,15,279,25,25,18,046,22,31,75,056,27,32,68,307,30*75
$GPGSV,3,3,10,16,07,170,00,22,13,136,00*78
$GPRMC,182010,A,4005.9132,N,10510.0070,W,000.0,237.9,140413,008.7,E,D*0F
$GPGSV,3,1,10,01,34,256,28,11,17,236,16,14,28,074,15,20,38,309,30*79
$GPGSV,3,2,10,23,15,279,26,25,18,046,22,31,75,056,27,32,68,307,31*77
$GPGSV,3,3,10,16,07,170,00,22,13,136,00*78
$GPRMC,182011,A,4005.9132,N,10510.0070,W,000.0,237.9,140413,008.7,E,D*0E
$GPGSV,3,1,10,01,34,256,41,11,17,236,28,14,28,074,15,20,38,309,43*7F
$GPGSV,3,2,10,23,15,279,41,25,18,046,37,31,75,056,39,32,68,307,44*7F
$GPGSV,3,3,10,16,07,170,00,22,13,136,00*78
$GPRMC,182012,A,4005.9132,N,10510.0070,W,000.0,237.9,140413,008.7,E,D*0D
$GPGSV,3,1,10,01,34,256,40,11,17,236,29,14,28,074,28,20,38,309,42*70
$GPGSV,3,2,10,22,12,137,27,23,15,279,40,25,18,046,37,31,75,056,38*77
$GPGSV,3,3,10,32,68,307,44,16,07,170,00*75
$GPRMC,182013,A,4005.9132,N,10510.0070,W,000.0,237.9,140413,008.7,E,D*0C
$GPGSV,3,1,10,01,34,256,32,11,17,236,20,14,28,074,20,20,38,309,31*70
$GPGSV,3,2,10,22,12,137,19,23,15,279,30,25,18,046,29,31,75,056,30*7A
$GPGSV,3,3,10,32,68,307,33,16,07,170,00*75
$GPRMC,182014,A,4005.9132,N,10510.0070,W,000.0,237.9,140413,008.7,E,D*0B
$GPGSV,3,1,10,01,34,256,33,11,17,236,21,14,28,074,19,20,38,309,33*78
$GPGSV,3,2,10,22,12,137,13,23,15,279,31,25,18,046,29,31,75,056,31*70
$GPGSV,3,3,10,32,68,307,35,16,07,170,00*73
$GPRMC,182015,A,4005.9132,N,10510.0070,W,000.0,237.9,140413,008.7,E,D*0A
$GPGSV,3,1,10,01,34,256,45,11,17,236,31,14,28,074,21,20,38,309,46*71
$GPGSV,3,2,10,22,12,137,13,23,15,279,33,25,18,046,31,31,75,056,33*79
$GPGSV,3,3,10,32,68,307,48,16,07,170,00*79
$GPRMC,182016,A,4005.9132,N,10510.0070,W,000.0,237.9,140413,008.7,E,D*09
$GPGSV,3,1,10,01,34,256,34,11,17,235,30,14,28,074,22,20,38,309,37*70
$GPGSV,3,2,10,22,12,137,19,23,15,279,33,25,18,046,31,31,75,056,32*72
$GPGSV,3,3,10,32,68,307,38,16,07,170,00*7E
$GPRMC,182017,A,4005.9132,N,10510.0070,W,000.0,237.9,140413,008.7,E,D*08
$GPGSV,3,1,10,01,34,256,33,11,17,235,23,14,28,074,21,20,38,309,35*74
$GPGSV,3,2,10,22,12,137,17,23,15,279,32,25,18,046,29,31,75,056,30*76
$GPGSV,3,3,10,32,68,307,37,16,07,170,00*71
$GPRMC,182018,A,4005.9132,N,10510.0070,W,000.0,237.9,140413,008.7,E,D*07
$GPGSV,3,1,10,01,34,256,32,11,17,235,22,14,28,074,21,20,38,309,34*75
$GPGSV,3,2,10,22,12,137,16,23,15,279,31,25,18,046,28,31,75,056,30*75
$GPGSV,3,3,10,32,68,307,36,16,07,170,00*70
$GPRMC,182019,A,4005.9132,N,10510.0070,W,000.0,237.9,140413,008.7,E,D*06
$GPGSV,3,1,10,01,34,256,32,11,17,235,22,14,28,074,20,20,38,309,33*73
$GPGSV,3,2,10,22,12,137,16,23,15,279,30,25,18,046,27,31,75,056,29*73
$GPGSV,3,3,10,32,68,307,35,16,07,170,00*73
$GPRMC,182020,A,4005.9132,N,10510.0070,W,000.0,237.9,140413,008.7,E,D*0C
$GPGSV,3,1,10,01,34,256,31,11,17,235,21,14,28,074,19,20,38,309,32*78
$GPGSV,3,2,10,22,12,137,16,23,15,279,29,25,18,046,26,31,75,056,28*7B
$GPGSV,3,3,10,32,68,307,34,16,07,170,00*72
$GPRMC,182021,A,4005.9132,N,10510.0070,W,000.0,237.9,140413,008.7,E,D*0D
$GPGSV,3,1,10,01,34,256,30,11,17,235,20,14,28,074,18,20,38,309,31*7A
$GPGSV,3,2,10,22,12,137,15,23,15,279,29,25,18,046,25,31,75,056,27*74
$GPGSV,3,3,10,32,68,307,33,16,07,170,00*75
$GPRMC,182022,A,4005.9132,N,10510.0070,W,000.0,237.9,140413,008.7,E,D*0E
$GPGSV,3,1,10,01,34,256,30,11,17,235,20,14,28,074,17,20,38,309,30*74
$GPGSV,3,2,10,22,12,137,15,23,15,279,29,25,18,046,25,31,75,056,26*75
$GPGSV,3,3,10,32,68,307,33,16,07,170,00*75
$GPRMC,182023,A,4005.9132,N,10510.0070,W,000.0,237.9,140413,008.7,E,D*0F
$GPGSV,3,1,10,01,34,256,30,11,17,235,20,14,28,074,17,20,38,309,30*74
$GPGSV,3,2,10,22,12,137,15,23,15,279,29,25,18,046,24,31,75,056,27*75
$GPGSV,3,3,10,32,68,307,33,16,07,170,00*75
$GPRMC,182024,A,4005.9132,N,10510.0070,W,000.0,237.9,140413,008.7,E,D*08
$GPGSV,3,1,10,01,34,256,31,11,17,235,21,14,28,074,17,20,38,309,31*75
$GPGSV,3,2,10,22,12,137,15,23,15,279,29,25,18,046,25,31,75,056,28*7B
$GPGSV,3,3,10,32,68,307,34,16,07,170,00*72
$GPRMC,182025,A,4005.9132,N,10510.0070,W,000.0,237.9,140413,008.7,E,D*09
$GPGSV,3,1,10,01,34,256,31,11,17,235,20,14,28,074,18,20,38,309,31*7B
$GPGSV,3,2,10,22,12,137,15,23,15,279,29,25,18,046,24,31,75,056,28*7A
$GPGSV,3,3,10,32,68,307,33,16,07,170,00*75
$GPRMC,182026,A,4005.9132,N,10510.0070,W,000.0,237.9,140413,008.7,E,D*0A
$GPGSV,3,1,10,01,34,256,30,11,17,235,19,14,28,074,18,20,38,309,31*70
$GPGSV,3,2,10,22,12,137,13,23,15,279,29,25,18,046,24,31,75,056,27*73
$GPGSV,3,3,10,32,68,307,33,16,07,170,00*75
$GPRMC,182027,A,4005.9132,N,10510.0070,W,000.0,237.9,140413,008.7,E,D*0B
$GPGSV,3,1,10,01,34,256,30,11,17,235,18,14,28,074,18,20,38,309,31*71
$GPGSV,3,2,10,23,15,279,29,25,18,046,24,31,75,056,27,32,68,307,33*7C
$GPGSV,3,3,10,16,07,170,00,22,12,137,00*78
$GPRMC,182028,A,4005.9132,N,10510.0070,W,000.0,237.9,140413,008.7,E,D*04
$GPGSV,3,1,10,01,34,256,30,11,17,235,18,14,28,074,18,20,38,309,31*71
$GPGSV,3,2,10,23,15,279,29,25,18,046,25,31,75,056,27,32,68,307,33*7D
$GPGSV,3,3,10,16,07,170,00,22,12,137,00*78
$GPRMC,182029,A,4005.9132,N,10510.0070,W,000.0,237.9,140413,008.7,E,D*05
$GPGSV,3,1,10,01,34,256,30,11,17,235,18,14,28,074,18,20,38,309,31*71
$GPGSV,3,2,10,23,15,279,28,25,18,046,25,31,75,056,27,32,68,307,33*7C
$GPGSV,3,3,10,16,07,170,00,22,12,137,00*78
$GPRMC,182030,A,4005.9132,N,10510.0070,W,000.0,237.9,140413,008.7,E,D*0D
$GPGSV,3,1,10,01,34,256,30,11,17,235,17,14,28,074,18,20,38,309,31*7E
$GPGSV,3,2,10,23,15,279,28,25,18,046,24,31,75,056,27,32,68,307,33*7D
$GPGSV,3,3,10,16,07,170,00,22,12,137,00*78
$GPRMC,182031,A,4005.9132,N,10510.0070,W,000.0,237.9,140413,008.7,E,D*0C
$GPGSV,3,1,10,01,34,256,31,11,17,235,16,14,28,074,19,20,38,309,32*7C
$GPGSV,3,2,10,22,12,137,16,23,15,279,29,25,18,046,25,31,75,056,27*77
$GPGSV,3,3,10,32,68,307,34,16,07,170,00*72
$GPRMC,182032,A,4005.9132,N,10510.0070,W,000.0,237.9,140413,008.7,E,D*0F
$GPGSV,3,1,10,01,34,256,31,11,17,235,15,14,28,074,20,20,38,309,32*75
$GPGSV,3,2,10,22,12,137,16,23,15,279,28,25,18,046,25,31,75,056,27*76
$GPGSV,3,3,10,32,68,307,34,16,07,170,00*72
$GPRMC,182033,A,4005.9132,N,10510.0070,W,000.0,237.9,140413,008.7,E,D*0E
$GPGSV,3,1,10,01,34,256,31,11,17,235,14,14,28,074,19,20,38,309,31*7D
$GPGSV,3,2,10,22,12,137,14,23,15,279,28,25,18,046,25,31,75,056,27*74
$GPGSV,3,3,10,32,68,307,34,16,07,170,00*72
$GPRMC,182034,A,4005.9132,N,10510.0070,W,000.0,237.9,140413,008.7,E,D*09
$GPGSV,3,1,10,01,34,256,31,11,17,235,14,14,28,074,18,20,38,309,31*7C
$GPGSV,3,2,10,22,12,137,14,23,15,279,28,25,18,046,25,31,75,056,26*75
$GPGSV,3,3,10,32,68,307,34,16,07,170,00*72
$GPRMC,182035,A,4005.9132,N,10510.0070,W,000.0,237.9,140413,008.7,E,D*08
$GPGSV,3,1,10,01,34,256,31,11,17,235,14,14,28,074,18,20,38,309,31*7C
$GPGSV,3,2,10,22,12,137,15,23,15,279,29,25,18,046,25,31,75,056,25*76
$GPGSV,3,3,10,32,68,307,34,16,07,170,00*72
$GPRMC,182036,A,4005.9132,N,10510.0070,W,000.0,237.9,140413,008.7,E,D*0B
$GPGSV,3,1,10,01,34,256,31,11,17,235,15,14,28,074,18,20,38,309,31*7D
$GPGSV,3,2,10,22,12,137,15,23,15,279,29,25,18,046,25,31,75,055,24*74
$GPGSV,3,3,10,32,68,307,34,16,07,170,00*72
$GPRMC,182037,A,4005.9132,N,10510.0070,W,000.0,237.9,140413,008.7,E,D*0A
$GPGSV,3,1,10,01,34,256,30,11,17,235,15,14,28,074,18,20,38,309,31*7C
$GPGSV,3,2,10,22,12,137,15,23,15,279,29,25,18,046,25,31,75,055,24*74
$GPGSV,3,3,10,32,68,307,34,16,07,170,00*72
$GPRMC,182038,A,4005.9132,N,10510.0070,W,000.0,237.9,140413,008.7,E,D*05
$GPGSV,3,1,10,01,34,255,30,11,17,235,14,14,28,074,18,20,38,309,30*7F
$GPGSV,3,2,10,22,12,137,15,23,15,279,29,25,18,046,25,31,75,055,24*74
$GPGSV,3,3,10,32,68,307,34,16,07,170,00*72
$GPRMC,182039,A,4005.9132,N,10510.0070,W,000.0,237.9,140413,008.7,E,D*04
$GPGSV,3,1,10,01,34,255,30,14,28,074,18,20,38,309,30,22,12,137,13*7C
$GPGSV,3,2,10,23,15,279,28,25,18,046,25,31,75,055,24,32,68,307,34*7B
$GPGSV,3,3,10,11,17,236,00,16,07,170,00*7F
$GPRMC,182040,A,4005.9132,N,10510.0070,W,000.0,237.9,140413,008.7,E,D*0A
$GPGSV,3,1,10,01,34,255,29,14,28,074,17,20,38,309,30,23,15,279,28*7C
$GPGSV,3,2,10,25,18,046,24,31,75,055,24,32,68,307,33,11,17,236,00*7F
$GPGSV,3,3,10,16,07,170,00,22,12,137,00*78
$GPRMC,182041,A,4005.9132,N,10510.0069,W,000.0,237.9,140413,008.7,E,D*03
$GPGSV,3,1,10,01,34,255,29,14,28,074,17,20,38,309,30,23,15,279,28*7C
$GPGSV,3,2,10,25,18,046,24,31,75,055,24,32,68,307,33,11,17,236,00*7F
$GPGSV,3,3,10,16,07,170,00,22,12,137,00*78
$GPRMC,182042,A,4005.9132,N,10510.0069,W,000.0,237.9,140413,008.7,E,D*00
$GPGSV,3,1,10,01,34,255,29,14,28,074,17,20,38,309,30,23,15,279,28*7C
$GPGSV,3,2,10,25,18,046,24,31,75,055,24,32,68,307,33,11,17,236,00*7F
$GPGSV,3,3,10,16,07,170,00,22,12,137,00*78
$GPRMC,182043,A,4005.9132,N,10510.0069,W,000.0,237.9,140413,008.7,E,D*01
$GPGSV,3,1,10,01,34,255,29,14,28,074,17,20,38,309,30,23,15,279,28*7C
$GPGSV,3,2,10,25,18,046,24,31,75,055,24,32,68,307,33,11,17,236,00*7F
$GPGSV,3,3,10,16,07,170,00,22,12,137,00*78
$GPRMC,182044,A,4005.9132,N,10510.0069,W,000.0,237.9,140413,008.7,E,D*06
$GPGSV,3,1,10,01,34,255,29,14,28,074,17,20,38,309,30,23,15,279,28*7C
$GPGSV,3,2,10,25,18,046,24,31,75,055,24,32,68,307,33,11,17,236,00*7F
$GPGSV,3,3,10,16,07,170,00,22,12,137,00*78
$GPRMC,182045,A,4005.9132,N,10510.0069,W,000.0,237.9,140413,008.7,E,D*07
$GPGSV,3,1,10,01,34,255,29,14,28,074,17,20,38,309,30,23,15,279,28*7C
$GPGSV,3,2,10,25,18,046,24,31,75,055,24,32,68,307,33,11,17,236,00*7F
$GPGSV,3,3,10,16,07,170,00,22,12,137,00*78
$GPRMC,182046,A,4005.9132,N,10510.0069,W,000.0,237.9,140413,008.7,E,D*04
$GPGSV,3,1,10,01,34,255,29,14,28,074,16,20,38,309,30,23,15,279,28*7D
$GPGSV,3,2,10,25,18,046,24,31,75,055,24,32,68,307,33,11,17,236,00*7F
$GPGSV,3,3,10,16,07,170,00,22,12,137,00*78
$GPRMC,182047,A,4005.9132,N,10510.0069,W,000.0,237.9,140413,008.7,E,D*05
$GPGSV,3,1,10,01,34,255,29,14,28,074,16,20,38,309,29,23,15,279,28*75
$GPGSV,3,2,10,25,18,046,24,31,75,055,25,32,68,307,33,11,17,236,00*7E
$GPGSV,3,3,10,16,07,170,00,22,12,137,00*78
$GPRMC,182048,A,4005.9132,N,10510.0069,W,000.0,237.9,140413,008.7,E,D*0A
$GPGSV,3,1,10,01,34,255,29,14,28,074,16,20,38,309,29,23,15,279,28*75
$GPGSV,3,2,10,25,18,046,24,31,75,055,25,32,68,307,33,11,17,236,00*7E
$GPGSV,3,3,10,16,07,170,00,22,12,137,00*78
$GPRMC,182049,A,4005.9132,N,10510.0069,W,000.0,237.9,140413,008.7,E,D*0B
$GPGSV,3,1,10,01,34,255,29,14,28,074,16,20,38,309,29,23,15,279,28*75
$GPGSV,3,2,10,25,18,046,24,31,75,055,25,32,68,307,33,11,17,236,00*7E
$GPGSV,3,3,10,16,07,170,00,22,12,137,00*78
$GPRMC,182050,A,4005.9132,N,10510.0069,W,000.0,237.9,140413,008.7,E,D*03
$GPGSV,3,1,10,01,34,255,29,14,28,074,16,20,38,309,30,23,15,279,28*7D
$GPGSV,3,2,10,25,18,046,25,31,75,055,26,32,68,307,33,11,17,236,00*7C
$GPGSV,3,3,10,16,07,170,00,22,12,137,00*78
$GPRMC,182051,A,4005.9132,N,10510.0069,W,000.0,237.9,140413,008.7,E,D*02
$GPGSV,3,1,10,01,34,255,29,14,28,074,16,20,38,309,30,23,15,279,28*7D
$GPGSV,3,2,10,25,18,046,25,31,75,055,25,32,68,307,33,11,17,236,00*7F
$GPGSV,3,3,10,16,07,170,00,22,12,137,00*78
$GPRMC,182052,A,4005.9132,N,10510.0069,W,000.0,237.9,140413,008.7,E,D*01
$GPGSV,3,1,10,01,34,255,29,14,28,074,16,20,38,309,31,23,15,279,28*7C
$GPGSV,3,2,10,25,18,046,25,31,75,055,25,32,68,307,33,11,17,236,00*7F
$GPGSV,3,3,10,16,07,170,00,22,12,137,00*78
$GPRMC,182053,A,4005.9132,N,10510.0069,W,000.0,237.9,140413,008.7,E,D*00
$GPGSV,3,1,10,01,34,255,30,14,28,074,17,20,38,309,31,23,15,279,29*74
$GPGSV,3,2,10,25,18,046,25,31,75,055,25,32,68,307,33,11,17,236,00*7F
$GPGSV,3,3,10,16,07,170,00,22,12,137,00*78
$GPRMC,182054,A,4005.9132,N,10510.0069,W,000.0,237.9,140413,008.7,E,D*07
$GPGSV,3,1,10,01,34,255,30,14,28,074,16,20,38,309,31,23,15,279,29*75
$GPGSV,3,2,10,25,18,046,25,31,75,055,25,32,68,307,33,11,17,236,00*7F
$GPGSV,3,3,10,16,07,170,00,22,12,137,00*78
$GPRMC,182055,A,4005.9132,N,10510.0069,W,000.0,237.9,140413,008.7,E,D*06
$GPGSV,3,1,10,01,34,255,29,14,28,074,16,20,38,309,31,23,15,279,28*7C
$GPGSV,3,2,10,25,18,046,24,31,75,055,25,32,68,307,32,11,17,236,00*7F
$GPGSV,3,3,10,16,07,170,00,22,12,137,00*78
$GPRMC,182056,A,4005.9132,N,10510.0069,W,000.0,237.9,140413,008.7,E,D*05
$GPGSV,3,1,10,01,34,255,29,14,28,074,16,20,38,309,31,23,15,279,28*7C
$GPGSV,3,2,10,25,18,046,24,31,75,055,25,32,68,307,32,11,17,236,00*7F
$GPGSV,3,3,10,16,07,170,00,22,12,137,00*78
$GPRMC,182057,A,4005.9132,N,10510.0069,W,000.0,237.9,140413,008.7,E,D*04
$GPGSV,3,1,10,01,34,255,29,14,28,074,16,20,38,309,31,23,15,279,28*7C
$GPGSV,3,2,10,25,18,046,24,31,75,055,25,32,68,307,32,11,17,236,00*7F
$GPGSV,3,3,10,16,07,170,00,22,12,137,00*78
$GPRMC,182058,A,4005.9132,N,10510.0069,W,000.0,237.9,140413,008.7,E,D*0B
$GPGSV,3,1,10,01,34,255,29,11,16,235,17,14,28,074,16,20,38,309,31*7A
$GPGSV,3,2,10,23,15,279,28,25,18,046,24,31,75,055,25,32,68,307,32*7D
$GPGSV,3,3,10,16,07,170,00,22,12,137,00*78
$GPRMC,182059,A,4005.9132,N,10510.0069,W,000.0,237.9,140413,008.7,E,D*0A
$GPGSV,3,1,10,01,34,255,28,11,16,235,15,14,28,074,14,20,38,309,30*7A
$GPGSV,3,2,10,23,15,279,27,25,18,046,24,31,75,055,25,32,68,307,32*72
$GPGSV,3,3,10,16,07,170,00,22,12,137,00*78
$GPRMC,182100,A,4005.9132,N,10510.0069,W,000.0,237.9,140413,008.7,E,D*07
$GPGSV,3,1,10,01,34,255,28,11,16,235,15,20,38,309,29,23,15,279,27*77
$GPGSV,3,2,10,25,18,046,24,31,75,055,24,32,68,307,32,14,28,073,00*74
$GPGSV,3,3,10,16,07,170,00,22,12,137,00*78
$GPRMC,182101,A,4005.9132,N,10510.0069,W,000.0,237.9,140413,008.7,E,D*06
$GPGSV,3,1,10,01,34,255,28,11,16,235,12,20,38,309,29,23,15,279,27*70
$GPGSV,3,2,10,25,18,046,24,31,75,055,24,32,68,307,32,14,28,073,00*74
$GPGSV,3,3,10,16,07,170,00,22,12,137,00*78
$GPRMC,182102,A,4005.9132,N,10510.0069,W,000.0,237.9,140413,008.7,E,D*05
$GPGSV,3,1,10,01,34,255,28,14,28,074,17,20,38,309,29,23,15,279,27*7A
$GPGSV,3,2,10,25,18,046,24,31,75,055,24,32,68,307,32,11,17,236,00*7E
$GPGSV,3,3,10,16,07,170,00,22,12,137,00*78
$GPRMC,182103,A,4005.9132,N,10510.0069,W,000.0,237.9,140413,008.7,E,D*04
$GPGSV,3,1,10,01,34,255,27,14,28,074,17,20,38,309,29,23,15,279,26*74
$GPGSV,3,2,10,25,18,046,24,31,75,055,24,32,68,307,32,11,17,236,00*7E
$GPGSV,3,3,10,16,07,170,00,22,12,137,00*78
$GPRMC,182104,A,4005.9132,N,10510.0069,W,000.0,237.9,140413,008.7,E,D*03
$GPGSV,3,1,10,01,34,255,27,14,28,074,15,20,38,309,29,23,15,279,26*76
$GPGSV,3,2,10,25,18,046,24,31,75,055,23,32,68,307,32,11,17,236,00*79
$GPGSV,3,3,10,16,07,170,00,22,12,137,00*78
$GPRMC,182105,A,4005.9132,N,10510.0069,W,000.0,237.9,140413,008.7,E,D*02
$GPGSV,3,1,10,01,34,255,27,14,28,074,15,20,38,309,29,23,15,279,26*76
$GPGSV,3,2,10,25,18,046,24,31,75,055,23,32,68,307,32,11,17,236,00*79
$GPGSV,3,3,10,16,07,170,00,22,12,137,00*78
$GPRMC,182106,A,4005.9132,N,10510.0069,W,000.0,237.9,140413,008.7,E,D*01
$GPGSV,3,1,10,01,34,255,27,11,16,235,18,14,28,074,15,20,38,309,29*71
$GPGSV,3,2,10,23,15,279,26,25,18,046,25,31,75,055,23,32,68,307,32*74
$GPGSV,3,3,10,16,07,170,00,22,12,137,00*78
$GPRMC,182107,A,4005.9132,N,10510.0069,W,000.0,237.9,140413,008.7,E,D*00
$GPGSV,3,1,10,01,34,255,27,11,16,235,18,14,28,074,16,20,38,309,29*72
$GPGSV,3,2,10,23,15,279,26,25,18,046,25,31,75,055,23,32,68,307,32*74
$GPGSV,3,3,10,16,07,170,00,22,12,137,00*78
$GPRMC,182108,A,4005.9132,N,10510.0069,W,000.0,237.9,140413,008.7,E,D*0F
$GPGSV,3,1,10,01,34,255,27,11,16,235,17,14,28,074,16,20,38,309,29*7D
$GPGSV,3,2,10,23,15,279,26,25,18,046,25,31,75,055,23,32,68,307,32*74
$GPGSV,3,3,10,16,07,170,00,22,12,137,00*78
$GPRMC,182109,A,4005.9132,N,10510.0069,W,000.0,237.9,140413,008.7,E,D*0E
$GPGSV,3,1,10,01,34,255,27,11,16,235,17,14,28,074,16,20,38,309,29*7D
$GPGSV,3,2,10,23,15,279,26,25,18,046,24,31,75,055,23,32,68,307,32*75
$GPGSV,3,3,10,16,07,170,00,22,12,137,00*78
$GPRMC,182110,A,4005.9132,N,10510.0069,W,000.0,237.9,140413,008.7,E,D*06
$GPGSV,3,1,10,01,34,255,27,11,16,235,18,14,28,074,16,20,38,309,29*72
$GPGSV,3,2,10,23,15,279,26,25,18,046,23,31,75,055,23,32,68,307,31*71
$GPGSV,3,3,10,16,07,170,00,22,12,137,00*78
$GPRMC,182111,A,4005.9132,N,10510.0069,W,000.0,237.9,140413,008.7,E,D*07
$GPGSV,3,1,10,01,34,255,27,11,16,235,18,14,28,074,14,20,38,309,29*70
$GPGSV,3,2,10,23,15,279,26,25,18,046,23,31,75,055,22,32,68,307,31*70
$GPGSV,3,3,10,16,07,170,00,22,12,137,00*78
$GPRMC,182112,A,4005.9132,N,10510.0069,W,000.0,237.9,140413,008.7,E,D*04
$GPGSV,3,1,10,01,34,255,27,11,16,235,18,14,28,074,15,20,38,309,29*71
$GPGSV,3,2,10,23,15,279,26,25,18,046,23,31,75,055,23,32,68,307,31*71
$GPGSV,3,3,10,16,07,170,00,22,12,137,00*78
$GPRMC,182113,A,4005.9132,N,10510.0069,W,000.0,237.9,140413,008.7,E,D*05
$GPGSV,3,1,10,01,34,255,28,11,16,235,18,14,28,074,16,20,38,309,29*7D
$GPGSV,3,2,10,23,15,279,26,25,18,046,24,31,75,055,23,32,68,307,31*76
$GPGSV,3,3,10,16,07,170,00,22,12,137,00*78
$GPRMC,182114,A,4005.9132,N,10510.0069,W,000.0,237.9,140413,008.7,E,D*02
$GPGSV,3,1,10,01,34,255,28,11,16,235,18,14,28,074,16,20,38,309,30*75
$GPGSV,3,2,10,23,15,279,26,25,18,046,25,31,75,055,24,32,68,307,31*70
$GPGSV,3,3,10,16,07,170,00,22,12,137,00*78
$GPRMC,182115,A,4005.9132,N,10510.0069,W,000.0,237.9,140413,008.7,E,D*03
$GPGSV,3,1,10,01,34,255,28,11,16,235,18,14,28,074,16,20,38,309,30*75
$GPGSV,3,2,10,23,15,279,26,25,18,046,25,31,75,055,24,32,68,307,31*70
$GPGSV,3,3,10,16,07,170,00,22,12,137,00*78
$GPRMC,182116,A,4005.9132,N,10510.0069,W,000.0,237.9,140413,008.7,E,D*00
$GPGSV,3,1,10,01,34,255,28,11,16,235,18,14,28,074,16,20,38,309,30*75
$GPGSV,3,2,10,23,15,279,26,25,18,046,25,31,75,055,24,32,68,307,31*70
$GPGSV,3,3,10,16,07,170,00,22,12,137,00*78
$GPRMC,182117,A,4005.9132,N,10510.0069,W,000.0,237.9,140413,008.7,E,D*01
$GPGSV,3,1,10,01,34,255,28,11,16,235,17,14,28,074,16,20,38,309,30*7A
$GPGSV,3,2,10,23,15,279,27,25,18,046,25,31,75,055,24,32,68,307,31*71
$GPGSV,3,3,10,16,07,170,00,22,12,137,00*78
$GPRMC,182118,A,4005.9132,N,10510.0069,W,000.0,237.9,140413,008.7,E,D*0E
$GPGSV,3,1,10,01,34,255,27,11,16,235,17,14,28,074,16,20,38,309,30*75
$GPGSV,3,2,10,23,15,279,27,25,18,046,25,31,75,055,24,32,68,307,31*71
$GPGSV,3,3,10,16,07,170,00,22,12,137,00*78
$GPRMC,182119,A,4005.9132,N,10510.0069,W,000.0,237.9,140413,008.7,E,D*0F
$GPGSV,3,1,10,01,34,255,27,11,16,235,17,14,28,074,17,20,38,309,30*74
$GPGSV,3,2,10,23,15,279,27,25,18,046,25,31,75,055,24,32,68,307,32*72
$GPGSV,3,3,10,16,07,170,00,22,12,137,00*78
$GPRMC,182120,A,4005.9132,N,10510.0069,W,000.0,237.9,140413,008.7,E,D*05
$GPGSV,3,1,10,01,34,255,29,11,16,235,18,14,28,074,18,20,38,309,32*78
$GPGSV,3,2,10,23,15,279,29,25,18,046,27,31,75,055,31,32,68,307,34*7C
$GPGSV,3,3,10,16,07,170,00,22,12,137,00*78
$GPRMC,182121,A,4005.9132,N,10510.0069,W,000.0,237.9,140413,008.7,E,D*04
$GPGSV,3,1,10,01,34,255,30,11,16,235,20,14,28,074,19,20,38,309,33*7B
$GPGSV,3,2,10,23,15,279,30,25,18,046,28,31,75,055,30,32,68,307,35*7B
$GPGSV,3,3,10,16,07,170,00,22,12,137,00*78
$GPRMC,182122,A,4005.9132,N,10510.0069,W,000.0,237.9,140413,008.7,E,D*07
$GPGSV,3,1,10,01,34,255,31,11,16,235,19,14,28,074,20,20,38,309,33*7A
$GPGSV,3,2,10,23,15,279,30,25,18,046,28,31,75,055,29,32,68,307,35*73
$GPGSV,3,3,10,16,07,170,00,22,12,137,00*78
$GPRMC,182123,A,4005.9132,N,10510.0069,W,000.0,237.9,140413,008.7,E,D*06
$GPGSV,3,1,10,01,34,255,31,11,16,235,19,14,27,075,20,20,38,309,33*74
$GPGSV,3,2,10,23,15,279,30,25,18,046,28,31,75,055,28,32,68,307,35*72
$GPGSV,3,3,10,16,07,170,00,22,12,137,00*78
$GPRMC,182124,A,4005.9132,N,10510.0069,W,000.0,237.9,140413,008.7,E,D*01
$GPGSV,3,1,10,01,34,255,31,11,16,235,19,14,27,075,20,20,38,309,33*74
$GPGSV,3,2,10,23,15,279,30,25,18,046,28,31,75,055,28,32,68,307,35*72
$GPGSV,3,3,10,16,07,170,00,22,12,137,00*78
$GPRMC,182125,A,4005.9132,N,10510.0069,W,000.0,237.9,140413,008.7,E,D*00
$GPGSV,3,1,10,01,34,255,31,11,16,235,20,14,27,075,21,20,38,309,33*7F
$GPGSV,3,2,10,23,15,279,30,25,18,046,28,31,75,055,28,32,68,307,35*72
$GPGSV,3,3,10,16,07,170,00,22,12,137,00*78
$GPRMC,182126,A,4005.9132,N,10510.0069,W,000.0,237.9,140413,008.7,E,D*03
$GPGSV,3,1,10,01,34,255,31,11,16,235,19,14,27,075,21,20,38,309,33*75
$GPGSV,3,2,10,23,15,279,30,25,18,046,28,31,75,055,28,32,68,307,35*72
$GPGSV,3,3,10,16,07,170,00,22,12,137,00*78
$GPRMC,182127,A,4005.9132,N,10510.0069,W,000.0,237.9,140413,008.7,E,D*02
$GPGSV,3,1,10,01,34,255,31,11,16,235,18,14,27,075,21,20,38,309,33*74
$GPGSV,3,2,10,23,15,279,30,25,18,046,28,31,75,055,28,32,68,307,35*72
$GPGSV,3,3,10,16,07,170,00,22,12,137,00*78
$GPRMC,182128,A,4005.9132,N,10510.0069,W,000.0,237.9,140413,008.7,E,D*0D
$GPGSV,3,1,10,01,34,255,31,11,16,235,18,14,27,075,21,20,38,309,33*74
$GPGSV,3,2,10,23,15,279,30,25,18,046,28,31,75,055,27,32,68,307,35*7D
$GPGSV,3,3,10,16,07,170,00,22,12,137,00*78
$GPRMC,182129,A,4005.9132,N,10510.0069,W,000.0,237.9,140413,008.7,E,D*0C
$GPGSV,3,1,10,01,34,255,31,11,16,235,18,14,27,075,22,20,39,308,33*77
$GPGSV,3,2,10,23,15,279,29,25,18,046,28,31,75,055,27,32,68,307,35*75
$GPGSV,3,3,10,16,07,170,00,22,12,137,00*78
$GPRMC,182130,A,4005.9132,N,10510.0069,W,000.0,237.9,140413,008.7,E,D*04
$GPGSV,3,1,10,01,34,255,31,11,16,235,17,14,27,075,21,20,39,308,33*7B
$GPGSV,3,2,10,23,15,279,28,25,18,046,28,31,75,055,27,32,68,307,35*74
$GPGSV,3,3,10,16,07,170,00,22,12,137,00*78
$GPRMC,182131,A,4005.9132,N,10510.0069,W,000.0,237.9,140413,008.7,E,D*05
$GPGSV,3,1,10,01,34,255,33,11,16,235,17,14,27,075,20,20,39,308,41*7D
$GPGSV,3,2,10,23,15,279,30,25,18,046,38,31,75,055,35,32,68,307,43*7E
$GPGSV,3,3,10,16,07,170,00,22,12,137,00*78
$GPRMC,182132,A,4005.9132,N,10510.0069,W,000.0,237.9,140413,008.7,E,D*06
$GPGSV,3,1,10,01,34,255,33,11,16,235,25,14,27,075,29,20,39,308,40*74
$GPGSV,3,2,10,22,11,137,17,23,15,279,32,25,18,046,37,31,75,055,34*7D
$GPGSV,3,3,10,32,68,307,42,16,07,170,00*73
$GPRMC,182133,A,4005.9132,N,10510.0069,W,000.0,237.9,140413,008.7,E,D*07
$GPGSV,3,1,10,01,34,255,34,11,16,235,24,14,27,075,28,20,39,308,39*7D
$GPGSV,3,2,10,22,11,137,17,23,15,279,33,25,18,046,37,31,75,055,34*7C
$GPGSV,3,3,10,32,68,307,42,16,07,170,00*73
$GPRMC,182134,A,4005.9132,N,10510.0069,W,000.0,237.9,140413,008.7,E,D*00
$GPGSV,3,1,10,01,34,255,34,11,16,235,24,14,27,075,29,16,08,170,20*7E
$GPGSV,3,2,10,20,39,308,39,23,15,279,33,25,18,045,36,31,75,055,34*74
$GPGSV,3,3,10,32,68,307,42,22,12,137,00*73
$GPRMC,182135,A,4005.9132,N,10510.0069,W,000.0,237.9,140413,008.7,E,D*01
$GPGSV,3,1,10,01,34,255,34,11,16,235,24,14,27,075,29,16,08,170,20*7E
$GPGSV,3,2,10,20,39,308,39,23,15,279,34,25,18,045,36,31,75,055,34*73
$GPGSV,3,3,10,32,68,307,42,22,12,137,00*73
$GPRMC,182136,A,4005.9132,N,10510.0069,W,000.0,237.9,140413,008.7,E,D*02
$GPGSV,3,1,10,01,34,255,34,11,16,235,23,14,27,075,29,16,08,170,22*7B
$GPGSV,3,2,10,20,39,308,39,22,11,137,19,23,15,279,35,25,18,045,36*78
$GPGSV,3,3,10,31,75,055,34,32,68,307,42*72
$GPRMC,182137,A,4005.9132,N,10510.0069,W,000.0,237.9,140413,008.7,E,D*03
$GPGSV,3,1,10,01,34,255,35,11,16,235,23,14,27,075,28,16,08,170,23*7A
$GPGSV,3,2,10,20,39,308,39,22,11,137,19,23,15,279,35,25,18,045,36*78
$GPGSV,3,3,10,31,75,055,35,32,68,307,42*73
$GPRMC,182138,A,4005.9132,N,10510.0070,W,000.0,237.9,140413,008.7,E,D*04
$GPGSV,3,1,10,01,34,255,36,11,16,235,23,14,27,075,28,16,08,170,25*7F
$GPGSV,3,2,10,20,39,308,40,23,15,279,36,25,18,045,37,31,75,055,36*7C
$GPGSV,3,3,10,32,68,307,43,22,12,137,00*72
$GPRMC,182139,A,4005.9132,N,10510.0069,W,000.0,237.9,140413,008.7,E,D*0D
$GPGSV,3,1,10,01,34,255,37,11,16,235,24,14,27,075,28,16,08,170,24*78
$GPGSV,3,2,10,20,39,308,41,22,11,137,14,23,15,279,37,25,18,045,38*76
$GPGSV,3,3,10,31,75,055,36,32,68,307,44*76
$GPRMC,182140,A,4005.9132,N,10510.0069,W,000.0,237.9,140413,008.7,E,D*03
$GPGSV,3,1,10,01,34,255,38,11,16,235,25,14,27,075,28,16,08,170,25*77
$GPGSV,3,2,10,20,39,308,42,22,11,137,15,23,15,279,38,25,18,045,39*7A
$GPGSV,3,3,10,31,75,054,37,32,68,307,44*76
$GPRMC,182141,A,4005.9132,N,10510.0070,W,000.0,237.9,140413,008.7,E,D*0A
$GPGSV,3,1,10,01,34,255,38,11,16,235,26,14,27,075,29,16,08,170,26*76
$GPGSV,3,2,10,20,39,308,42,22,11,137,16,23,15,279,38,25,18,045,39*79
$GPGSV,3,3,10,31,75,054,37,32,68,306,44*77
$GPRMC,182142,A,4005.9132,N,10510.0070,W,000.0,237.9,140413,008.7,E,D*09
$GPGSV,3,1,10,01,34,255,38,11,16,235,26,14,27,075,29,16,08,170,26*76
$GPGSV,3,2,10,20,39,308,42,22,11,137,16,23,15,279,38,25,18,045,39*79
$GPGSV,3,3,10,31,75,054,37,32,68,306,44*77
$GPRMC,182143,A,4005.9132,N,10510.0070,W,000.0,237.9,140413,008.7,E,D*08
$GPGSV,3,1,10,01,34,255,38,11,16,235,26,14,27,075,29,16,08,170,25*75
$GPGSV,3,2,10,20,39,308,42,22,11,137,17,23,15,279,37,25,18,045,39*77
$GPGSV,3,3,10,31,75,054,37,32,68,306,43*70
$GPRMC,182144,A,4005.9132,N,10510.0070,W,000.0,237.9,140413,008.7,E,D*0F
$GPGSV,3,1,10,01,34,255,38,11,16,235,27,14,27,075,30,16,08,170,24*7D
$GPGSV,3,2,10,20,39,308,42,22,11,137,18,23,15,279,37,25,18,045,38*79
$GPGSV,3,3,10,31,75,054,37,32,68,306,43*70
$GPRMC,182145,A,4005.9132,N,10510.0070,W,000.0,237.9,140413,008.7,E,D*0E
$GPGSV,3,1,10,01,34,255,38,11,16,235,27,14,27,075,30,16,08,170,20*79
$GPGSV,3,2,10,20,39,308,42,22,11,137,18,23,15,279,36,25,18,045,38*78
$GPGSV,3,3,10,31,75,054,37,32,68,306,43*70
$GPRMC,182146,A,4005.9132,N,10510.0070,W,000.0,237.9,140413,008.7,E,D*0D
$GPGSV,3,1,10,01,34,255,37,11,16,235,36,14,27,075,29,20,39,308,42*70
$GPGSV,3,2,10,22,11,137,18,23,15,279,35,25,18,045,38,31,75,054,37*7B
$GPGSV,3,3,10,32,68,306,42,16,07,170,00*72
$GPRMC,182147,A,4005.9132,N,10510.0070,W,000.0,237.9,140413,008.7,E,D*0C
$GPGSV,3,1,10,01,34,255,37,11,16,235,36,14,27,075,29,20,39,308,41*73
$GPGSV,3,2,10,22,11,137,20,23,15,279,35,25,18,045,38,31,75,054,37*70
$GPGSV,3,3,10,32,68,306,42,16,07,170,00*72
$GPRMC,182148,A,4005.9132,N,10510.0070,W,000.0,237.9,140413,008.7,E,D*03
$GPGSV,3,1,10,01,34,255,35,11,16,235,35,14,27,075,28,20,39,308,40*72
$GPGSV,3,2,10,22,11,137,20,23,15,279,34,25,18,045,37,31,75,054,35*7C
$GPGSV,3,3,10,32,68,306,41,16,07,170,00*71
$GPRMC,182149,A,4005.9132,N,10510.0070,W,000.0,237.9,140413,008.7,E,D*02
$GPGSV,3,1,10,01,34,255,35,11,16,235,35,14,27,075,28,20,39,308,40*72
$GPGSV,3,2,10,22,11,137,22,23,15,279,34,25,18,045,37,31,75,054,35*7E
$GPGSV,3,3,10,32,68,306,41,16,07,170,00*71
$GPRMC,182150,A,4005.9132,N,10510.0070,W,000.0,237.9,140413,008.7,E,D*0A
$GPGSV,3,1,10,01,34,255,34,11,16,235,35,14,27,075,27,20,39,308,40*7C
$GPGSV,3,2,10,22,11,137,23,23,15,279,34,25,18,045,37,31,75,054,34*7E
$GPGSV,3,3,10,32,68,306,41,16,07,170,00*71
$GPRMC,182151,A,4005.9132,N,10510.0070,W,000.0,237.9,140413,008.7,E,D*0B
$GPGSV,3,1,10,01,34,255,35,11,16,235,36,14,27,075,27,20,39,308,41*7F
$GPGSV,3,2,10,22,11,137,25,23,15,279,34,25,18,045,38,31,75,054,35*76
$GPGSV,3,3,10,32,68,306,42,16,07,170,00*72
$GPRMC,182152,A,4005.9132,N,10510.0070,W,000.0,237.9,140413,008.7,E,D*08
$GPGSV,3,1,10,01,34,255,35,11,16,235,36,14,27,075,27,20,39,308,41*7F
$GPGSV,3,2,10,22,11,137,26,23,15,279,34,25,18,045,38,31,75,054,35*75
$GPGSV,3,3,10,32,68,306,41,16,07,170,00*71
$GPRMC,182153,A,4005.9132,N,10510.0070,W,000.0,237.9,140413,008.7,E,D*09
$GPGSV,3,1,10,01,34,255,34,11,16,235,35,14,27,075,27,20,39,308,40*7C
$GPGSV,3,2,10,22,11,137,26,23,15,279,34,25,18,045,37,31,75,054,35*7A
$GPGSV,3,3,10,32,68,306,41,16,07,170,00*71
$GPRMC,182154,A,4005.9132,N,10510.0070,W,000.0,237.9,140413,008.7,E,D*0E
$GPGSV,3,1,10,01,34,255,34,11,16,235,35,14,27,075,27,20,39,308,40*7C
$GPGSV,3,2,10,22,11,137,26,23,15,279,34,25,18,045,37,31,75,054,35*7A
$GPGSV,3,3,10,32,68,306,41,16,07,170,00*71
$GPRMC,182155,A,4005.9132,N,10510.0070,W,000.0,237.9,140413,008.7,E,D*0F
$GPGSV,3,1,10,01,34,255,34,11,16,235,35,14,27,075,28,20,39,308,40*73
$GPGSV,3,2,10,22,11,137,26,23,15,279,34,25,18,045,37,31,75,054,35*7A
$GPGSV,3,3,10,32,68,306,41,16,07,170,00*71
$GPRMC,182156,A,4005.9132,N,10510.0070,W,000.0,237.9,140413,008.7,E,D*0C
$GPGSV,3,1,10,01,34,255,34,11,16,235,35,14,27,075,28,20,39,308,40*73
$GPGSV,3,2,10,22,11,137,27,23,15,279,33,25,18,045,37,31,75,054,35*7C
$GPGSV,3,3,10,32,68,306,41,16,07,170,00*71
$GPRMC,182157,A,4005.9132,N,10510.0070,W,000.0,237.9,140413,008.7,E,D*0D
$GPGSV,3,1,10,01,34,255,33,11,16,235,35,14,27,075,27,20,39,308,40*7B
$GPGSV,3,2,10,22,11,137,27,23,15,279,33,25,18,045,37,31,75,054,35*7C
$GPGSV,3,3,10,32,68,306,41,16,07,170,00*71
$GPRMC,182158,A,4005.9132,N,10510.0070,W,000.0,237.9,140413,008.7,E,D*02
$GPGSV,3,1,10,01,34,255,33,11,16,235,35,14,27,075,28,20,39,308,40*74
$GPGSV,3,2,10,22,11,137,27,23,15,279,33,25,18,045,37,31,75,054,35*7C
$GPGSV,3,3,10,32,68,306,41,16,07,170,00*71
$GPRMC,182159,A,4005.9132,N,10510.0070,W,000.0,237.9,140413,008.7,E,D*03
$GPGSV,3,1,10,01,34,255,33,11,16,235,35,14,27,075,28,20,39,308,40*74
$GPGSV,3,2,10,22,11,137,27,23,15,279,33,25,18,045,37,31,75,054,35*7C
$GPGSV,3,3,10,32,68,306,41,16,07,170,00*71
$GPRMC,182200,A,4005.9132,N,10510.0070,W,000.0,237.9,140413,008.7,E,D*0C
$GPGSV,3,1,10,01,34,255,33,11,16,235,35,14,27,075,28,20,39,308,40*74
$GPGSV,3,2,10,22,11,137,28,23,15,279,33,25,18,045,37,31,75,054,34*72
$GPGSV,3,3,10,32,68,306,41,16,07,170,00*71
$GPRMC,182201,A,4005.9132,N,10510.0070,W,000.0,237.9,140413,008.7,E,D*0D
$GPGSV,3,1,10,01,34,255,33,11,16,235,35,14,27,075,27,20,39,308,40*7B
$GPGSV,3,2,10,22,11,137,28,23,15,279,33,25,18,045,37,31,75,054,34*72
$GPGSV,3,3,10,32,68,306,41,16,07,170,00*71
$GPRMC,182202,A,4005.9132,N,10510.0070,W,000.0,237.9,140413,008.7,E,D*0E
$GPGSV,3,1,10,01,34,255,33,11,16,235,36,14,27,075,26,20,39,308,41*78
$GPGSV,3,2,10,22,11,137,28,23,15,279,33,25,18,045,38,31,75,054,35*7C
$GPGSV,3,3,10,32,68,306,42,16,07,170,00*72
$GPRMC,182203,A,4005.9132,N,10510.0070,W,000.0,237.9,140413,008.7,E,D*0F
$GPGSV,3,1,10,01,34,255,34,11,16,235,36,14,27,075,26,20,39,308,41*7F
$GPGSV,3,2,10,22,11,138,29,23,15,279,34,25,18,045,39,31,75,054,35*74
$GPGSV,3,3,10,32,68,306,42,16,07,170,00*72
$GPRMC,182204,A,4005.9132,N,10510.0070,W,000.0,237.9,140413,008.7,E,D*08
$GPGSV,3,1,10,01,34,255,34,11,16,235,35,14,27,075,26,20,39,308,41*7C
$GPGSV,3,2,10,22,11,138,29,23,15,279,33,25,18,045,38,31,75,054,34*73
$GPGSV,3,3,10,32,68,306,41,16,07,170,00*71
$GPRMC,182205,A,4005.9132,N,10510.0070,W,000.0,237.9,140413,008.7,E,D*09
$GPGSV,3,1,10,01,34,255,34,11,16,235,35,14,27,075,25,20,39,308,41*7F
$GPGSV,3,2,10,22,11,138,28,23,15,279,32,25,18,045,38,31,75,054,34*73
$GPGSV,3,3,10,32,68,306,41,16,07,170,00*71
$GPRMC,182206,A,4005.9132,N,10510.0070,W,000.0,237.9,140413,008.7,E,D*0A
$GPGSV,3,1,10,01,34,255,34,11,16,235,35,14,27,075,25,16,08,170,24*76
